{"name":"GoingOn","sector":"software","twitter_account":"GoingOn_Network","city":"San Francisco","employees":40,"position":{"type":"Point","coordinates":[-122.392142,37.782263]}}
{"name":"headr","sector":"web","twitter_account":"tripodsocial","city":"Berlin","employees":8,"position":{"type":"Point","coordinates":[13.4109071,52.5013449]}}
{"name":"Fixya","sector":"web","twitter_account":"MUaliyu","city":"San Mateo","employees":30,"position":{"type":"Point","coordinates":[-122.323895,37.566879]}}
{"name":"First30Days","sector":"web","twitter_account":"clickariane","city":"Louisville","employees":17,"position":{"type":"Point","coordinates":[-85.717393,38.257035]}}
{"name":"PokerPlayersSocialNetwork","sector":"web","twitter_account":"","city":"Kirkland","employees":3,"position":{"type":"Point","coordinates":[-122.187925,47.704875]}}
{"name":"thatsmymouse","sector":"web","twitter_account":null,"city":"Sydney","employees":3,"position":{"type":"Point","coordinates":[151.039775,-34.054416]}}
{"name":"Unknown Vector","sector":"web","twitter_account":null,"city":"San Francisco","employees":7,"position":{"type":"Point","coordinates":[-122.404488,37.790032]}}
{"name":"Poodz","sector":"web","twitter_account":null,"city":"Roubaix","employees":5,"position":{"type":"Point","coordinates":[3.165225,50.694712]}}
{"name":"Stumpedia","sector":"web","twitter_account":"stumpedia","city":"Millstone Township","employees":1,"position":{"type":"Point","coordinates":[-74.370313,40.219214]}}
{"name":"Newspond","sector":"web","twitter_account":null,"city":"Edmonton, Alberta","employees":2,"position":{"type":"Point","coordinates":[-113.5291728,53.4665377]}}
{"name":"Scred","sector":"web","twitter_account":"Screditor","city":"Kauniainen","employees":3,"position":{"type":"Point","coordinates":[24.704663,60.214102]}}
{"name":"ZapNat","sector":"web","twitter_account":null,"city":"","employees":2,"position":{"type":"Point","coordinates":[-71.683502,42.037302]}}
{"name":"nobosh","sector":"web","twitter_account":"hall","city":"Scottsdale","employees":1,"position":{"type":"Point","coordinates":[-111.93315,33.503906]}}
{"name":"Wordki","sector":"web","twitter_account":null,"city":"","employees":2,"position":{"type":"Point","coordinates":[-3.435973,55.378051]}}
{"name":"ReadBurner","sector":"web","twitter_account":null,"city":"San Francisco","employees":4,"position":{"type":"Point","coordinates":[-122.4042586,37.80391]}}
{"name":"CreateDebate","sector":"web","twitter_account":"createdebate","city":"Arlington","employees":3,"position":{"type":"Point","coordinates":[-77.12016,38.909812]}}
{"name":"InformedMD","sector":"web","twitter_account":"infomedmd","city":"Boston","employees":2,"position":{"type":"Point","coordinates":[-71.13129,42.322072]}}
{"name":"Intent","sector":"web","twitter_account":"Intentdotcom","city":"Santa Monica","employees":6,"position":{"type":"Point","coordinates":[-118.495981,34.01052]}}
{"name":"BuyerRaja","sector":"web","twitter_account":null,"city":"Bangalore","employees":20,"position":{"type":"Point","coordinates":[77.578768,13.033353]}}
{"name":"Kalibera","sector":"web","twitter_account":null,"city":"Oslo","employees":2,"position":{"type":"Point","coordinates":[10.738741,59.91382]}}
{"name":"Noovo","sector":"web","twitter_account":"noovo","city":"Palo Alto","employees":8,"position":{"type":"Point","coordinates":[-122.155678,37.446382]}}
{"name":"Woopra","sector":"software","twitter_account":"woopra","city":"San Francisco","employees":12,"position":{"type":"Point","coordinates":[-100.076888,31.169036]}}
{"name":"Weardrobe","sector":"web","twitter_account":"weardrobe","city":"Palo Alto","employees":2,"position":{"type":"Point","coordinates":[-122.164925,37.446662]}}
{"name":"Cotendo","sector":"software","twitter_account":"cotendo","city":"Sunnyvale","employees":30,"position":{"type":"Point","coordinates":[-122.259568,37.504764]}}
{"name":"GamerNook","sector":"web","twitter_account":"GamerNook","city":"Toms River","employees":3,"position":{"type":"Point","coordinates":[-74.125176,39.949301]}}
{"name":"Twubble","sector":"web","twitter_account":"crazybob","city":"","employees":1,"position":{"type":"Point","coordinates":[-119.306607,37.269175]}}
{"name":"Edistorm","sector":"software","twitter_account":"edistorm","city":"Edmonton","employees":4,"position":{"type":"Point","coordinates":[-113.502765,53.534692]}}
{"name":"FinFolio","sector":"software","twitter_account":"FinFolio","city":"Las Vegas","employees":3,"position":{"type":"Point","coordinates":[-115.154816,36.136552]}}
{"name":"FragMob","sector":"software","twitter_account":"JadeCharles","city":"San Diego","employees":12,"position":{"type":"Point","coordinates":[-118.36543,34.063441]}}
{"name":"skoogO","sector":"web","twitter_account":"","city":"Ann Arbor","employees":1,"position":{"type":"Point","coordinates":[-83.731129,42.282255]}}
{"name":"Jobingenieur","sector":"web","twitter_account":null,"city":"Rennes","employees":2,"position":{"type":"Point","coordinates":[-1.6629087,48.1128512]}}
{"name":"Cutcaster","sector":"web","twitter_account":"cutcaster","city":"San Francisco","employees":8,"position":{"type":"Point","coordinates":[-122.457454,37.79851]}}
{"name":"Mad Mimi","sector":"web","twitter_account":"madmimi","city":"Brooklyn","employees":35,"position":{"type":"Point","coordinates":[-73.980306,40.66509]}}
{"name":"Beer Universe","sector":"web","twitter_account":"BeerUniverse","city":"Chicago","employees":3,"position":{"type":"Point","coordinates":[-78.922055,36.009825]}}
{"name":"Macroaxis","sector":"software","twitter_account":"macroaxis","city":"San Francisco","employees":8,"position":{"type":"Point","coordinates":[-122.3998782,37.7896292]}}
{"name":"Mollom","sector":"public_relations","twitter_account":"mollom","city":"Berchem","employees":2,"position":{"type":"Point","coordinates":[4.4213295,51.1929359]}}
{"name":"Crowdstatus","sector":"public_relations","twitter_account":null,"city":"","employees":1,"position":{"type":"Point","coordinates":[-3.435973,55.378051]}}
{"name":"UserVoice","sector":"software","twitter_account":"uservoice","city":"San Francisco","employees":22,"position":{"type":"Point","coordinates":[-122.0253784,36.9751032]}}
{"name":"Imagine Whatever","sector":"web","twitter_account":null,"city":"Rancho Cordova","employees":3,"position":{"type":"Point","coordinates":[-121.262316,38.589948]}}
{"name":"Sideline Report","sector":"web","twitter_account":null,"city":"Plant City","employees":5,"position":{"type":"Point","coordinates":[-82.391633,28.554855]}}
{"name":"WotsCool","sector":"web","twitter_account":null,"city":"Auckland","employees":1,"position":{"type":"Point","coordinates":[174.72663,-36.879454]}}
{"name":"Tensor Media","sector":"public_relations","twitter_account":null,"city":"Waterloo","employees":2,"position":{"type":"Point","coordinates":[-80.522372,43.465187]}}
{"name":"Park Hill","sector":"web","twitter_account":null,"city":"Mangalore","employees":10,"position":{"type":"Point","coordinates":[74.84256,12.86936]}}
{"name":"CogCog","sector":"web","twitter_account":null,"city":"Akron","employees":2,"position":{"type":"Point","coordinates":[-81.473725,41.143544]}}
{"name":"uLiken","sector":"web","twitter_account":null,"city":"Cherry Hill","employees":2,"position":{"type":"Point","coordinates":[-75.024335,39.928792]}}
{"name":"FuelClinic","sector":"public_relations","twitter_account":null,"city":"","employees":2,"position":{"type":"Point","coordinates":[-79.420926,38.003376]}}
{"name":"FRoSP","sector":"web","twitter_account":"home","city":"Cologne","employees":2,"position":{"type":"Point","coordinates":[6.9280123,50.9508924]}}
{"name":"College Mogul","sector":"web","twitter_account":"mogulcollege","city":"New York","employees":9,"position":{"type":"Point","coordinates":[-73.963158,40.798345]}}
{"name":"Moosti","sector":"web","twitter_account":null,"city":"","employees":2,"position":{"type":"Point","coordinates":[-8.224454,39.399872]}}
{"name":"SmashingFeeds","sector":"web","twitter_account":"blogfisher","city":"Hyderabad","employees":1,"position":{"type":"Point","coordinates":[78.486671,17.385044]}}
{"name":"Jupidi","sector":"web","twitter_account":null,"city":"Hamburg","employees":3,"position":{"type":"Point","coordinates":[9.966419,53.561185]}}
{"name":"JumpFrog","sector":"consulting","twitter_account":null,"city":"Hazleton","employees":12,"position":{"type":"Point","coordinates":[-76.029511,40.977855]}}
{"name":"Mangaroo Media","sector":"web","twitter_account":null,"city":"Burlington","employees":3,"position":{"type":"Point","coordinates":[-79.824384,43.366842]}}
{"name":"Worship Journal","sector":"web","twitter_account":null,"city":"London","employees":3,"position":{"type":"Point","coordinates":[-0.150417,51.517076]}}
{"name":"Mouth Watering Media","sector":"web","twitter_account":null,"city":"Houston","employees":10,"position":{"type":"Point","coordinates":[-95.390758,29.735082]}}
{"name":"Blazing Bid","sector":"web","twitter_account":null,"city":"Raleigh","employees":1,"position":{"type":"Point","coordinates":[-78.643414,35.779748]}}
{"name":"Spoonflower","sector":"web","twitter_account":"spoonflower","city":"Durham","employees":35,"position":{"type":"Point","coordinates":[-79.266246,36.0966]}}
{"name":"Ovologic","sector":"software","twitter_account":"evolliaweb","city":"Qu\u00c3\u00a9bec","employees":1,"position":{"type":"Point","coordinates":[-71.20097,46.898577]}}
{"name":"Socruise","sector":"web","twitter_account":null,"city":"Kent","employees":5,"position":{"type":"Point","coordinates":[0.257568,51.125693]}}
{"name":"wagehub","sector":"web","twitter_account":null,"city":"Madison Heights","employees":1,"position":{"type":"Point","coordinates":[-83.14483,42.51214]}}
{"name":"SFentrepreneur","sector":"web","twitter_account":"entmagazine","city":"San Francisco","employees":2,"position":{"type":"Point","coordinates":[-122.437262,37.78597]}}
{"name":"Plurk","sector":"web","twitter_account":null,"city":"Mississauga","employees":7,"position":{"type":"Point","coordinates":[-79.603622,43.657979]}}
{"name":"Pinch Media","sector":"software","twitter_account":null,"city":"New York","employees":6,"position":{"type":"Point","coordinates":[-73.985506,40.757929]}}
{"name":"PRunderground","sector":"public_relations","twitter_account":"prunderground","city":"Brewster","employees":12,"position":{"type":"Point","coordinates":[-73.614577,41.395013]}}
{"name":"Manam Infotech","sector":"software","twitter_account":"manamtech","city":"Bangalore","employees":20,"position":{"type":"Point","coordinates":[77.653739,12.975531]}}
{"name":"Ucareer","sector":"web","twitter_account":null,"city":"Austin","employees":6,"position":{"type":"Point","coordinates":[-97.763987,30.275261]}}
{"name":"DormTrader","sector":"web","twitter_account":"","city":"Chicago","employees":1,"position":{"type":"Point","coordinates":[-87.66831,42.010632]}}
{"name":"MESOMOCO","sector":"web","twitter_account":null,"city":"Scarborough","employees":4,"position":{"type":"Point","coordinates":[-0.469586,54.211373]}}
{"name":"Sazell","sector":"web","twitter_account":"Sazell","city":"London","employees":2,"position":{"type":"Point","coordinates":[-0.126236,51.500152]}}
{"name":"Wazzala","sector":"web","twitter_account":null,"city":"","employees":1,"position":{"type":"Point","coordinates":[-95.712891,37.09024]}}
{"name":"NitroDesk","sector":"software","twitter_account":"nitrodesk","city":"Bellevue","employees":8,"position":{"type":"Point","coordinates":[-122.132013,47.584975]}}
{"name":"Monkiri","sector":"public_relations","twitter_account":null,"city":"Pune","employees":6,"position":{"type":"Point","coordinates":[73.83237,18.569305]}}
{"name":"BrandYourself","sector":"web","twitter_account":"brandyourself","city":"New York","employees":22,"position":{"type":"Point","coordinates":[-71.24762,42.275263]}}
{"name":"Strateer","sector":"web","twitter_account":null,"city":"New York","employees":2,"position":{"type":"Point","coordinates":[-74.007072,40.714521]}}
{"name":"Ladies Who Launch","sector":"public_relations","twitter_account":"ladieswholaunch","city":"New York","employees":12,"position":{"type":"Point","coordinates":[-73.991512,40.753877]}}
{"name":"CollegeConvo","sector":"web","twitter_account":"","city":"Van Nuys","employees":2,"position":{"type":"Point","coordinates":[-74.294395,40.650291]}}
{"name":"iPlaceBook","sector":"web","twitter_account":null,"city":"Las Vegas","employees":1,"position":{"type":"Point","coordinates":[-115.246776,36.233048]}}
{"name":"Restyleme","sector":"web","twitter_account":null,"city":"Citrus Heights","employees":2,"position":{"type":"Point","coordinates":[-121.267626,38.692609]}}
{"name":"PerfectBusiness","sector":"web","twitter_account":null,"city":"Venice","employees":10,"position":{"type":"Point","coordinates":[-118.456709,33.995974]}}
{"name":"Estilook","sector":"web","twitter_account":null,"city":"Sao Paulo","employees":3,"position":{"type":"Point","coordinates":[-46.638818,-23.548943]}}
{"name":"Passitto","sector":"web","twitter_account":null,"city":"Boulder","employees":3,"position":{"type":"Point","coordinates":[-105.278025,40.01831]}}
{"name":"Carfeine","sector":"software","twitter_account":"carfeine","city":"Bethesda","employees":5,"position":{"type":"Point","coordinates":[-77.026676,38.989124]}}
{"name":"Ziippi","sector":"web","twitter_account":"","city":"Palo Alto","employees":6,"position":{"type":"Point","coordinates":[-122.1612868,37.4440981]}}
{"name":"Pink Banana Media","sector":"consulting","twitter_account":"PinkBananaWorld","city":"West Hollywood","employees":2,"position":{"type":"Point","coordinates":[-118.367701,34.091073]}}
{"name":"Geekdom","sector":"web","twitter_account":null,"city":"Sydney","employees":50,"position":{"type":"Point","coordinates":[151.208584,-33.860404]}}
{"name":"BitRock","sector":"software","twitter_account":"bitnami","city":"Alameda","employees":20,"position":{"type":"Point","coordinates":[-122.274771,37.78424]}}
{"name":"Xilinus","sector":"web","twitter_account":"maptimize","city":"Cesson S\u00c3\u00a9vign\u00c3\u00a9","employees":2,"position":{"type":"Point","coordinates":[-1.611882,48.10583]}}
{"name":"EventElephant","sector":"software","twitter_account":"EventElephant","city":"Richmond","employees":20,"position":{"type":"Point","coordinates":[-6.252923,53.335194]}}
{"name":"oybuzz","sector":"consulting","twitter_account":null,"city":"Richmond Hill","employees":5,"position":{"type":"Point","coordinates":[-79.4242645,43.874167]}}
{"name":"CreActivity Focus","sector":"web","twitter_account":null,"city":"Lima","employees":10,"position":{"type":"Point","coordinates":[-77.0551909,-12.0805011]}}
{"name":"Forvo","sector":"web","twitter_account":"forvo","city":"San Sebasti\u00e1n","employees":4,"position":{"type":"Point","coordinates":[-1.9820361,43.3135579]}}
{"name":"Uprizer Labs","sector":"software","twitter_account":null,"city":"Austin","employees":5,"position":{"type":"Point","coordinates":[-97.710481,30.291391]}}
{"name":"JumpForward","sector":"software","twitter_account":"jumpforward","city":"Chicago","employees":30,"position":{"type":"Point","coordinates":[-87.623923,41.857204]}}
{"name":"Posterous","sector":"web","twitter_account":"posterous","city":"San Francisco","employees":9,"position":{"type":"Point","coordinates":[-122.419204,37.775196]}}
{"name":"Mobile Teleshoppe","sector":"consulting","twitter_account":"telesols","city":"Jaipur","employees":20,"position":{"type":"Point","coordinates":[75.7664384,26.891551]}}
{"name":"Mobile Teleshoppe","sector":"consulting","twitter_account":"telesols","city":"Mumbai","employees":20,"position":{"type":"Point","coordinates":[72.856178,19.017656]}}
{"name":"SNASM","sector":"web","twitter_account":"SNASM","city":"Boynton Beach","employees":2,"position":{"type":"Point","coordinates":[-80.082474,26.528215]}}
{"name":"Jetrecord","sector":"web","twitter_account":"jetrecord","city":"Seattle","employees":1,"position":{"type":"Point","coordinates":[-105.20545,40.179731]}}
{"name":"Open Places","sector":"web","twitter_account":"trazzler","city":"San Francisco","employees":3,"position":{"type":"Point","coordinates":[-122.398379,37.758352]}}
{"name":"TweetDeck","sector":"software","twitter_account":"TweetDeck","city":"London","employees":5,"position":{"type":"Point","coordinates":[-0.1262362,51.5001524]}}
{"name":"Widgenie","sector":"public_relations","twitter_account":null,"city":"mexico|","employees":9,"position":{"type":"Point","coordinates":[-99.133208,19.4326077]}}
{"name":"vunite media","sector":"public_relations","twitter_account":"vunite","city":"Salt Lake City","employees":3,"position":{"type":"Point","coordinates":[-111.858952,40.766429]}}
{"name":"Ninth Yard","sector":"software","twitter_account":"","city":"Omaha","employees":1,"position":{"type":"Point","coordinates":[-97.745209,30.268735]}}
{"name":"Regator","sector":"web","twitter_account":"regator","city":"Atlanta","employees":4,"position":{"type":"Point","coordinates":[-84.389663,33.754487]}}
{"name":"Prolebrity","sector":"web","twitter_account":null,"city":"Santa Monica","employees":8,"position":{"type":"Point","coordinates":[-118.493105,34.015464]}}
{"name":"The Drum Fill","sector":"web","twitter_account":null,"city":"Saint John","employees":3,"position":{"type":"Point","coordinates":[-66.09705,45.298204]}}
{"name":"Wahanda","sector":"web","twitter_account":"wahanda","city":"London","employees":50,"position":{"type":"Point","coordinates":[1.996567,41.792265]}}
{"name":"EcoFlip","sector":"web","twitter_account":"","city":"San Francisco","employees":5,"position":{"type":"Point","coordinates":[-122.420903,37.796164]}}
{"name":"Tripy Travel","sector":"web","twitter_account":null,"city":"Wellington","employees":10,"position":{"type":"Point","coordinates":[174.774682,-41.296454]}}
{"name":"Rock Entertainment","sector":"web","twitter_account":null,"city":"San Carlos","employees":3,"position":{"type":"Point","coordinates":[-122.267654,37.494996]}}
{"name":"MedicareSaver","sector":"web","twitter_account":null,"city":"Flower Mound","employees":6,"position":{"type":"Point","coordinates":[-97.069403,33.020039]}}
{"name":"Blinkweb","sector":"web","twitter_account":null,"city":"Carmel","employees":3,"position":{"type":"Point","coordinates":[-86.198436,39.973067]}}
{"name":"InstantAmber","sector":"web","twitter_account":"instantamber","city":"Nashville","employees":5,"position":{"type":"Point","coordinates":[-86.846342,36.124497]}}
{"name":"Dynamic50","sector":"consulting","twitter_account":"dynamic50","city":"London","employees":10,"position":{"type":"Point","coordinates":[-0.184358,51.51781]}}
{"name":"15Talents","sector":"consulting","twitter_account":"15Talents","city":"Berlin","employees":12,"position":{"type":"Point","coordinates":[13.40462,52.521627]}}
{"name":"Jibes","sector":"web","twitter_account":null,"city":"Utrecht","employees":15,"position":{"type":"Point","coordinates":[5.148893,52.091381]}}
{"name":"OpenDrive","sector":"software","twitter_account":"OpenDrive","city":"Palo Alto","employees":25,"position":{"type":"Point","coordinates":[-122.39736,37.794043]}}
{"name":"WorkoutBOX","sector":"web","twitter_account":"workoutbox","city":"Dorking, Surrey","employees":5,"position":{"type":"Point","coordinates":[-0.4274181,51.2798857]}}
{"name":"84ideas","sector":"consulting","twitter_account":"84ideas","city":"Hyderabad","employees":25,"position":{"type":"Point","coordinates":[78.486671,17.385044]}}
{"name":"MetaSieve","sector":"software","twitter_account":null,"city":"Bochum","employees":0,"position":{"type":"Point","coordinates":[7.25795,51.4453516]}}
{"name":"Qovax","sector":"software","twitter_account":null,"city":"Agoura Hills","employees":2,"position":{"type":"Point","coordinates":[-118.761265,34.146149]}}
{"name":"Samfind","sector":"software","twitter_account":"samfind","city":"Los Angeles","employees":30,"position":{"type":"Point","coordinates":[-118.385271,34.052107]}}
{"name":"Handcrafted","sector":"consulting","twitter_account":"","city":"Houston","employees":5,"position":{"type":"Point","coordinates":[-95.5627227,29.983076]}}
{"name":"Ratemyideas","sector":"web","twitter_account":null,"city":"Vancouver","employees":2,"position":{"type":"Point","coordinates":[-123.060221,49.242824]}}
{"name":"Relativity","sector":"consulting","twitter_account":null,"city":"N. Attleboro","employees":4,"position":{"type":"Point","coordinates":[-71.3607,41.957177]}}
{"name":"Tweenky","sector":"web","twitter_account":null,"city":"Kansas City","employees":1,"position":{"type":"Point","coordinates":[-94.594928,39.104837]}}
{"name":"Click2Map","sector":"web","twitter_account":null,"city":"Metz","employees":4,"position":{"type":"Point","coordinates":[6.182658,49.1004]}}
{"name":"RankBoom","sector":"web","twitter_account":"RankBoomSupport","city":"Palo Alto","employees":2,"position":{"type":"Point","coordinates":[-122.1490582,37.4459832]}}
{"name":"CompareAway","sector":"web","twitter_account":"rentalspecials","city":"Durham","employees":5,"position":{"type":"Point","coordinates":[-1.574948,54.703145]}}
{"name":"want2do","sector":"web","twitter_account":null,"city":"Berlin","employees":4,"position":{"type":"Point","coordinates":[13.465981,52.510284]}}
{"name":"LocalPrice","sector":"web","twitter_account":"localprice","city":"Atlanta","employees":3,"position":{"type":"Point","coordinates":[-84.334042,33.877286]}}
{"name":"Videonewmedia","sector":"public_relations","twitter_account":null,"city":"Kuala Lumpur","employees":3,"position":{"type":"Point","coordinates":[101.707703,3.15021]}}
{"name":"SchoolPulse","sector":"web","twitter_account":"exp2excellence","city":"Concord","employees":6,"position":{"type":"Point","coordinates":[-71.356845,42.45494]}}
{"name":"TuneyFish","sector":"consulting","twitter_account":"tuneyfish","city":"Mercer Island","employees":2,"position":{"type":"Point","coordinates":[-122.233149,47.565229]}}
{"name":"retaggr","sector":"web","twitter_account":"retaggr","city":"London","employees":4,"position":{"type":"Point","coordinates":[-0.24233,51.549167]}}
{"name":"Same Page Capital","sector":"consulting","twitter_account":"samepagecapital","city":"San Francisco","employees":1,"position":{"type":"Point","coordinates":[-122.4194155,37.7749295]}}
{"name":"YellowSpaces","sector":"web","twitter_account":"","city":"New York","employees":1,"position":{"type":"Point","coordinates":[-73.990024,40.739867]}}
{"name":"RevJobs","sector":"web","twitter_account":null,"city":"Santa Barbara","employees":1,"position":{"type":"Point","coordinates":[-119.8084281,34.4335255]}}
{"name":"Spellspace","sector":"web","twitter_account":"spellspace","city":"Lake Arrowhead","employees":2,"position":{"type":"Point","coordinates":[-117.11359,34.265641]}}
{"name":"Classtell","sector":"web","twitter_account":null,"city":"Toronto","employees":1,"position":{"type":"Point","coordinates":[-79.411513,43.769574]}}
{"name":"Orinea","sector":"web","twitter_account":"","city":"Paris","employees":5,"position":{"type":"Point","coordinates":[2.3249952,48.8785721]}}
{"name":"Orinea","sector":"web","twitter_account":"","city":"Casablanca, Maroc","employees":5,"position":{"type":"Point","coordinates":[-7.6332257,33.5922469]}}
{"name":"TheWebService","sector":"web","twitter_account":null,"city":"Worcester","employees":12,"position":{"type":"Point","coordinates":[-2.26681,52.232349]}}
{"name":"TwitterCounter","sector":"web","twitter_account":"thecounter","city":"Amsterdam","employees":1,"position":{"type":"Point","coordinates":[4.8926529,52.3644743]}}
{"name":"Digital ReveNew","sector":"consulting","twitter_account":null,"city":"Milan","employees":20,"position":{"type":"Point","coordinates":[9.2298577,45.507014]}}
{"name":"Digital ReveNew","sector":"consulting","twitter_account":null,"city":"Rome","employees":20,"position":{"type":"Point","coordinates":[12.4941336,41.8975813]}}
{"name":"Strider SEO","sector":"consulting","twitter_account":"RKF","city":"Toronto","employees":3,"position":{"type":"Point","coordinates":[-79.554784,43.632844]}}
{"name":"Strider SEO","sector":"consulting","twitter_account":"RKF","city":"Woodbridge","employees":3,"position":{"type":"Point","coordinates":[-79.611182,43.768232]}}
{"name":"Plum Amazing","sector":"software","twitter_account":"plumamazing","city":"Princeville","employees":4,"position":{"type":"Point","coordinates":[-159.480262,22.226745]}}
{"name":"eTalkup","sector":"web","twitter_account":null,"city":"Redmond","employees":5,"position":{"type":"Point","coordinates":[-122.133621,47.67356]}}
{"name":"Occipital","sector":"software","twitter_account":"occipital","city":"Boulder","employees":9,"position":{"type":"Point","coordinates":[-105.278109,40.018145]}}
{"name":"Cityflats4you","sector":"web","twitter_account":null,"city":"Vienna","employees":2,"position":{"type":"Point","coordinates":[16.357786,48.182591]}}
{"name":"NewMarCom","sector":"consulting","twitter_account":null,"city":"Amsterdam","employees":1,"position":{"type":"Point","coordinates":[4.890314,52.352201]}}
{"name":"cosinity","sector":"web","twitter_account":null,"city":"Chandler","employees":1,"position":{"type":"Point","coordinates":[-111.8566,33.3176]}}
{"name":"IdenIve","sector":"web","twitter_account":"zazhub","city":"St Charles","employees":1,"position":{"type":"Point","coordinates":[-88.294854,41.931912]}}
{"name":"Producteev","sector":"software","twitter_account":"producteev","city":"New York","employees":10,"position":{"type":"Point","coordinates":[-73.983656,40.775309]}}
{"name":"Twonq","sector":"web","twitter_account":null,"city":"San Francisco","employees":3,"position":{"type":"Point","coordinates":[-122.403223,37.794124]}}
{"name":"Twonq","sector":"web","twitter_account":null,"city":"Delft","employees":3,"position":{"type":"Point","coordinates":[4.3848574,51.9973515]}}
{"name":"The Impartial Observer","sector":"web","twitter_account":null,"city":"Philadelphia","employees":4,"position":{"type":"Point","coordinates":[-75.163808,39.951639]}}
{"name":"Thomson Reuters","sector":"public_relations","twitter_account":"ThomsonReuters","city":"New York","employees":50000,"position":{"type":"Point","coordinates":[-73.9871847,40.7564318]}}
{"name":"Papervitamins","sector":"web","twitter_account":"papervitamins","city":"","employees":2,"position":{"type":"Point","coordinates":[-73.986951,40.756054]}}
{"name":"Papervitamins","sector":"web","twitter_account":"papervitamins","city":"Yokohama","employees":2,"position":{"type":"Point","coordinates":[139.6380256,35.4437078]}}
{"name":"eLagaan","sector":"web","twitter_account":"elagaan","city":"Bangalore","employees":20,"position":{"type":"Point","coordinates":[77.594376,12.971606]}}
{"name":"eLagaan","sector":"web","twitter_account":"elagaan","city":"Fremont","employees":20,"position":{"type":"Point","coordinates":[-121.9501439,37.3110283]}}
{"name":"CropMom","sector":"software","twitter_account":"cropmom","city":"Poway","employees":3,"position":{"type":"Point","coordinates":[-117.062239,32.981201]}}
{"name":"Twittad","sector":"web","twitter_account":"twittad","city":"Des Moines","employees":3,"position":{"type":"Point","coordinates":[-93.733354,41.630492]}}
{"name":"911ice","sector":"web","twitter_account":null,"city":"Los Gatos","employees":4,"position":{"type":"Point","coordinates":[-121.987122,37.228232]}}
{"name":"IncSpring","sector":"public_relations","twitter_account":null,"city":"San Antonio","employees":9,"position":{"type":"Point","coordinates":[-98.488402,29.520005]}}
{"name":"splaht!","sector":"web","twitter_account":null,"city":"Charlotte","employees":2,"position":{"type":"Point","coordinates":[-80.83722,35.208745]}}
{"name":"Spare Change Payments","sector":"web","twitter_account":null,"city":"Cupertino","employees":8,"position":{"type":"Point","coordinates":[-122.055177,37.323234]}}
{"name":"Jorbb","sector":"web","twitter_account":null,"city":"Singapore","employees":3,"position":{"type":"Point","coordinates":[103.861929,1.308655]}}
{"name":"Dooit","sector":"software","twitter_account":null,"city":"Treviso","employees":10,"position":{"type":"Point","coordinates":[12.22861,45.657409]}}
{"name":"Shastic","sector":"software","twitter_account":"Shastic_Inc","city":"Berkeley","employees":4,"position":{"type":"Point","coordinates":[-122.2987371,37.8650275]}}
{"name":"Call Me Later","sector":"web","twitter_account":null,"city":"Miami","employees":25,"position":{"type":"Point","coordinates":[-80.29413,25.916982]}}
{"name":"SnapPages","sector":"web","twitter_account":"snappages","city":"Austin","employees":4,"position":{"type":"Point","coordinates":[-97.77512,30.443493]}}
{"name":"TickerGram","sector":"web","twitter_account":null,"city":"Champaign","employees":2,"position":{"type":"Point","coordinates":[-88.239237,40.090392]}}
{"name":"UpdateStar","sector":"software","twitter_account":"updatestar","city":"Berlin","employees":5,"position":{"type":"Point","coordinates":[13.285504,52.583651]}}
{"name":"uTag","sector":"web","twitter_account":null,"city":"Sydney","employees":5,"position":{"type":"Point","coordinates":[151.207114,-33.867139]}}
{"name":"Samepoint","sector":"web","twitter_account":"samepoint","city":"New York","employees":5,"position":{"type":"Point","coordinates":[-73.999675,40.741441]}}
{"name":"ContestMachine","sector":"public_relations","twitter_account":null,"city":"Southfield","employees":3,"position":{"type":"Point","coordinates":[-83.245467,42.47715]}}
{"name":"AUPEO!","sector":"web","twitter_account":"AUPEO","city":"Berlin","employees":25,"position":{"type":"Point","coordinates":[13.414913,52.523021]}}
{"name":"YellowSpaces","sector":"web","twitter_account":"","city":"New York","employees":1,"position":{"type":"Point","coordinates":[-73.990024,40.739867]}}
{"name":"RevJobs","sector":"web","twitter_account":null,"city":"Santa Barbara","employees":1,"position":{"type":"Point","coordinates":[-119.8084281,34.4335255]}}
{"name":"Spellspace","sector":"web","twitter_account":"spellspace","city":"Lake Arrowhead","employees":2,"position":{"type":"Point","coordinates":[-117.11359,34.265641]}}
{"name":"Classtell","sector":"web","twitter_account":null,"city":"Toronto","employees":1,"position":{"type":"Point","coordinates":[-79.411513,43.769574]}}
{"name":"Orinea","sector":"web","twitter_account":"","city":"Paris","employees":5,"position":{"type":"Point","coordinates":[2.3249952,48.8785721]}}
{"name":"Orinea","sector":"web","twitter_account":"","city":"Casablanca, Maroc","employees":5,"position":{"type":"Point","coordinates":[-7.6332257,33.5922469]}}
{"name":"TheWebService","sector":"web","twitter_account":null,"city":"Worcester","employees":12,"position":{"type":"Point","coordinates":[-2.26681,52.232349]}}
{"name":"TwitterCounter","sector":"web","twitter_account":"thecounter","city":"Amsterdam","employees":1,"position":{"type":"Point","coordinates":[4.8926529,52.3644743]}}
{"name":"Digital ReveNew","sector":"consulting","twitter_account":null,"city":"Milan","employees":20,"position":{"type":"Point","coordinates":[9.2298577,45.507014]}}
{"name":"Digital ReveNew","sector":"consulting","twitter_account":null,"city":"Rome","employees":20,"position":{"type":"Point","coordinates":[12.4941336,41.8975813]}}
{"name":"Strider SEO","sector":"consulting","twitter_account":"RKF","city":"Toronto","employees":3,"position":{"type":"Point","coordinates":[-79.554784,43.632844]}}
{"name":"Strider SEO","sector":"consulting","twitter_account":"RKF","city":"Woodbridge","employees":3,"position":{"type":"Point","coordinates":[-79.611182,43.768232]}}
{"name":"eTalkup","sector":"web","twitter_account":null,"city":"Redmond","employees":5,"position":{"type":"Point","coordinates":[-122.133621,47.67356]}}
{"name":"Plum Amazing","sector":"software","twitter_account":"plumamazing","city":"Princeville","employees":4,"position":{"type":"Point","coordinates":[-159.480262,22.226745]}}
{"name":"Occipital","sector":"software","twitter_account":"occipital","city":"Boulder","employees":9,"position":{"type":"Point","coordinates":[-105.278109,40.018145]}}
{"name":"Cityflats4you","sector":"web","twitter_account":null,"city":"Vienna","employees":2,"position":{"type":"Point","coordinates":[16.357786,48.182591]}}
{"name":"NewMarCom","sector":"consulting","twitter_account":null,"city":"Amsterdam","employees":1,"position":{"type":"Point","coordinates":[4.890314,52.352201]}}
{"name":"cosinity","sector":"web","twitter_account":null,"city":"Chandler","employees":1,"position":{"type":"Point","coordinates":[-111.8566,33.3176]}}
{"name":"Thomson Reuters","sector":"public_relations","twitter_account":"ThomsonReuters","city":"New York","employees":50000,"position":{"type":"Point","coordinates":[-73.9871847,40.7564318]}}
{"name":"IdenIve","sector":"web","twitter_account":"zazhub","city":"St Charles","employees":1,"position":{"type":"Point","coordinates":[-88.294854,41.931912]}}
{"name":"Producteev","sector":"software","twitter_account":"producteev","city":"New York","employees":10,"position":{"type":"Point","coordinates":[-73.983656,40.775309]}}
{"name":"Twonq","sector":"web","twitter_account":null,"city":"San Francisco","employees":3,"position":{"type":"Point","coordinates":[-122.403223,37.794124]}}
{"name":"Twonq","sector":"web","twitter_account":null,"city":"Delft","employees":3,"position":{"type":"Point","coordinates":[4.3848574,51.9973515]}}
{"name":"The Impartial Observer","sector":"web","twitter_account":null,"city":"Philadelphia","employees":4,"position":{"type":"Point","coordinates":[-75.163808,39.951639]}}
{"name":"eLagaan","sector":"web","twitter_account":"elagaan","city":"Bangalore","employees":20,"position":{"type":"Point","coordinates":[77.594376,12.971606]}}
{"name":"eLagaan","sector":"web","twitter_account":"elagaan","city":"Fremont","employees":20,"position":{"type":"Point","coordinates":[-121.9501439,37.3110283]}}
{"name":"CropMom","sector":"software","twitter_account":"cropmom","city":"Poway","employees":3,"position":{"type":"Point","coordinates":[-117.062239,32.981201]}}
{"name":"Papervitamins","sector":"web","twitter_account":"papervitamins","city":"","employees":2,"position":{"type":"Point","coordinates":[-73.986951,40.756054]}}
{"name":"Papervitamins","sector":"web","twitter_account":"papervitamins","city":"Yokohama","employees":2,"position":{"type":"Point","coordinates":[139.6380256,35.4437078]}}
{"name":"Twittad","sector":"web","twitter_account":"twittad","city":"Des Moines","employees":3,"position":{"type":"Point","coordinates":[-93.733354,41.630492]}}
{"name":"911ice","sector":"web","twitter_account":null,"city":"Los Gatos","employees":4,"position":{"type":"Point","coordinates":[-121.987122,37.228232]}}
{"name":"IncSpring","sector":"public_relations","twitter_account":null,"city":"San Antonio","employees":9,"position":{"type":"Point","coordinates":[-98.488402,29.520005]}}
{"name":"splaht!","sector":"web","twitter_account":null,"city":"Charlotte","employees":2,"position":{"type":"Point","coordinates":[-80.83722,35.208745]}}
{"name":"Spare Change Payments","sector":"web","twitter_account":null,"city":"Cupertino","employees":8,"position":{"type":"Point","coordinates":[-122.055177,37.323234]}}
{"name":"Jorbb","sector":"web","twitter_account":null,"city":"Singapore","employees":3,"position":{"type":"Point","coordinates":[103.861929,1.308655]}}
{"name":"Dooit","sector":"software","twitter_account":null,"city":"Treviso","employees":10,"position":{"type":"Point","coordinates":[12.22861,45.657409]}}
{"name":"Shastic","sector":"software","twitter_account":"Shastic_Inc","city":"Berkeley","employees":4,"position":{"type":"Point","coordinates":[-122.2987371,37.8650275]}}
{"name":"Call Me Later","sector":"web","twitter_account":null,"city":"Miami","employees":25,"position":{"type":"Point","coordinates":[-80.29413,25.916982]}}
{"name":"SnapPages","sector":"web","twitter_account":"snappages","city":"Austin","employees":4,"position":{"type":"Point","coordinates":[-97.77512,30.443493]}}
{"name":"TickerGram","sector":"web","twitter_account":null,"city":"Champaign","employees":2,"position":{"type":"Point","coordinates":[-88.239237,40.090392]}}
{"name":"UpdateStar","sector":"software","twitter_account":"updatestar","city":"Berlin","employees":5,"position":{"type":"Point","coordinates":[13.285504,52.583651]}}
{"name":"uTag","sector":"web","twitter_account":null,"city":"Sydney","employees":5,"position":{"type":"Point","coordinates":[151.207114,-33.867139]}}
{"name":"ContestMachine","sector":"public_relations","twitter_account":null,"city":"Southfield","employees":3,"position":{"type":"Point","coordinates":[-83.245467,42.47715]}}
{"name":"Samepoint","sector":"web","twitter_account":"samepoint","city":"New York","employees":5,"position":{"type":"Point","coordinates":[-73.999675,40.741441]}}
{"name":"AUPEO!","sector":"web","twitter_account":"AUPEO","city":"Berlin","employees":25,"position":{"type":"Point","coordinates":[13.414913,52.523021]}}
{"name":"IT Stocklist","sector":"web","twitter_account":null,"city":"Bonn","employees":12,"position":{"type":"Point","coordinates":[7.066468,50.710267]}}
{"name":"Rethink SEO","sector":"consulting","twitter_account":"rethinkseo","city":"Toronto","employees":5,"position":{"type":"Point","coordinates":[-79.3891727,43.708615]}}
{"name":"TimeRime","sector":"web","twitter_account":"TimeRime","city":"Rotterdam","employees":5,"position":{"type":"Point","coordinates":[4.463134,51.906973]}}
{"name":"Cliqset","sector":"web","twitter_account":"cliqset","city":"Jacksonville","employees":5,"position":{"type":"Point","coordinates":[-81.657707,30.310978]}}
{"name":"DealBase Corporation","sector":"web","twitter_account":"dealbase","city":"Manhattan Beach","employees":3,"position":{"type":"Point","coordinates":[-122.3277578,37.5758867]}}
{"name":"WWCTN","sector":"web","twitter_account":null,"city":"Aberdeen","employees":2,"position":{"type":"Point","coordinates":[-2.1334772,57.1254952]}}
{"name":"Magoosh","sector":"web","twitter_account":"magoosh","city":"Berkeley","employees":13,"position":{"type":"Point","coordinates":[-122.270913,37.871087]}}
{"name":"NUresume","sector":"web","twitter_account":null,"city":"Pleasanton","employees":6,"position":{"type":"Point","coordinates":[-121.803522,37.639038]}}
{"name":"FreeTreeTravel","sector":"public_relations","twitter_account":null,"city":"Breda","employees":1,"position":{"type":"Point","coordinates":[4.781197,51.573463]}}
{"name":"Curbsidebooty","sector":"web","twitter_account":null,"city":"","employees":2,"position":{"type":"Point","coordinates":[-73.974187,40.642591]}}
{"name":"T-Cast Media Consulting","sector":"consulting","twitter_account":null,"city":"Redwood City","employees":1,"position":{"type":"Point","coordinates":[-122.230116,37.486368]}}
{"name":"SocialMoms","sector":"web","twitter_account":"socialmoms","city":"Ross","employees":8,"position":{"type":"Point","coordinates":[-122.159291,37.443]}}
{"name":"SocialTwist","sector":"software","twitter_account":"TellaFriend","city":"Mountain View","employees":30,"position":{"type":"Point","coordinates":[-122.014791,37.355275]}}
{"name":"Glued Network","sector":"consulting","twitter_account":null,"city":"St. Louis","employees":2,"position":{"type":"Point","coordinates":[-90.19841,38.627522]}}
{"name":"DandyID","sector":"web","twitter_account":null,"city":"Providence","employees":3,"position":{"type":"Point","coordinates":[-71.4094864,41.8283241]}}
{"name":"PeoplePad","sector":"web","twitter_account":null,"city":"Austin","employees":10,"position":{"type":"Point","coordinates":[-97.745209,30.268735]}}
{"name":"Mobelux","sector":"software","twitter_account":"mobelux","city":"Richmond","employees":2,"position":{"type":"Point","coordinates":[-77.37613,37.573792]}}
{"name":"LoadStorm","sector":"web","twitter_account":"LoadStorm","city":"Albuquerque","employees":4,"position":{"type":"Point","coordinates":[-106.520846,35.131172]}}
{"name":"Groupon","sector":"web","twitter_account":"groupon","city":"Chicago","employees":10000,"position":{"type":"Point","coordinates":[-87.643622,41.8965162]}}
{"name":"Extrakoll","sector":"web","twitter_account":null,"city":"Solna","employees":0,"position":{"type":"Point","coordinates":[18.042057,59.378282]}}
{"name":"BuzzStream","sector":"software","twitter_account":"buzzstream","city":"Austin","employees":8,"position":{"type":"Point","coordinates":[-97.750885,30.290699]}}
{"name":"findwell","sector":"web","twitter_account":"findwell","city":"Seattle","employees":7,"position":{"type":"Point","coordinates":[-122.34229,47.627368]}}
{"name":"Scrumy","sector":"public_relations","twitter_account":null,"city":"Villa Park","employees":3,"position":{"type":"Point","coordinates":[-87.980974,41.878814]}}
{"name":"Calameo","sector":"web","twitter_account":"calameo","city":"Paris","employees":10,"position":{"type":"Point","coordinates":[2.308019,48.871174]}}
{"name":"Visuamobile","sector":"software","twitter_account":"","city":"Paris","employees":35,"position":{"type":"Point","coordinates":[2.3602202,48.8691369]}}
{"name":"fotoglif","sector":"web","twitter_account":"Fotoglif","city":"Toronto","employees":6,"position":{"type":"Point","coordinates":[-79.394325,43.647]}}
{"name":"iKlax Media","sector":"software","twitter_account":"iklax","city":"BIDART","employees":7,"position":{"type":"Point","coordinates":[-1.5555799,43.4477272]}}
{"name":"TVLesson","sector":"web","twitter_account":"TVLesson","city":"Brea","employees":18,"position":{"type":"Point","coordinates":[-117.8771193,33.9266484]}}
{"name":"Vengeo","sector":"software","twitter_account":"","city":"Toronto","employees":13,"position":{"type":"Point","coordinates":[-79.439315,43.678782]}}
{"name":"FanSpan","sector":"web","twitter_account":null,"city":"Portland","employees":2,"position":{"type":"Point","coordinates":[-122.682376,45.529907]}}
{"name":"NessDex","sector":"web","twitter_account":null,"city":"Budapest","employees":2,"position":{"type":"Point","coordinates":[19.026118,47.420458]}}
{"name":"Expand Online","sector":"consulting","twitter_account":"ExpandOnline","city":"Rotterdam","employees":20,"position":{"type":"Point","coordinates":[4.480165,51.920151]}}
{"name":"VIrtualVu","sector":"web","twitter_account":null,"city":"Barrie,","employees":10,"position":{"type":"Point","coordinates":[-79.668813,44.371496]}}
{"name":"Bleacher Advisor","sector":"web","twitter_account":null,"city":"Spring Hill","employees":1,"position":{"type":"Point","coordinates":[-82.55582,28.552044]}}
{"name":"BuzzGain","sector":"public_relations","twitter_account":null,"city":"Sunnyvale","employees":21,"position":{"type":"Point","coordinates":[-121.992805,37.384206]}}
{"name":"Buzzr","sector":"software","twitter_account":"buzzr","city":"New York","employees":5,"position":{"type":"Point","coordinates":[-73.992609,40.740941]}}
{"name":"Pongr","sector":"software","twitter_account":"Pongr","city":"Boston","employees":20,"position":{"type":"Point","coordinates":[-93.625499,41.587539]}}
{"name":"Pongr","sector":"software","twitter_account":"Pongr","city":"Des Moines","employees":20,"position":{"type":"Point","coordinates":[-71.0766717,42.3513279]}}
{"name":"StellarSurvey","sector":"software","twitter_account":null,"city":"Milwaukee","employees":5,"position":{"type":"Point","coordinates":[-87.895093,43.097697]}}
{"name":"Maptimize","sector":"web","twitter_account":"maptimize","city":"Cesson S\u00c3\u00a9vign\u00c3\u00a9","employees":3,"position":{"type":"Point","coordinates":[-1.611882,48.10583]}}
{"name":"Formspring","sector":"web","twitter_account":"formspring","city":"San Francisco","employees":19,"position":{"type":"Point","coordinates":[-86.0547016,39.9052263]}}
{"name":"RGA Advisors, LLC","sector":"consulting","twitter_account":null,"city":"New York","employees":10,"position":{"type":"Point","coordinates":[-73.985207,40.740145]}}
{"name":"RGA Advisors, LLC","sector":"consulting","twitter_account":null,"city":"Great Neck","employees":10,"position":{"type":"Point","coordinates":[-73.709665,40.784463]}}
{"name":"FACEinHOLE","sector":"web","twitter_account":"FaceInHoleWeb","city":"Lisbon","employees":4,"position":{"type":"Point","coordinates":[-9.135517,38.7071631]}}
{"name":"UptimeArchive","sector":"web","twitter_account":null,"city":"Toronto","employees":5,"position":{"type":"Point","coordinates":[-79.44182,43.769479]}}
{"name":"CarZen","sector":"web","twitter_account":"carzen","city":"New York","employees":5,"position":{"type":"Point","coordinates":[-73.951865,40.76945]}}
{"name":"Blog to it","sector":"web","twitter_account":"","city":"Abergavenny","employees":1,"position":{"type":"Point","coordinates":[-3.020908,51.824849]}}
{"name":"Stupeflix","sector":"web","twitter_account":"stupeflix","city":"Paris","employees":15,"position":{"type":"Point","coordinates":[2.3603689,48.8785618]}}
{"name":"GC Marshall","sector":"consulting","twitter_account":null,"city":"Chicago","employees":1,"position":{"type":"Point","coordinates":[-87.6385324,41.8790291]}}
{"name":"CityPorters","sector":"web","twitter_account":null,"city":"San Jose","employees":2,"position":{"type":"Point","coordinates":[-121.880958,37.320006]}}
{"name":"Rubysophic","sector":"software","twitter_account":"","city":"Moraga","employees":5,"position":{"type":"Point","coordinates":[-122.129671,37.860866]}}
{"name":"WJT Global Solutions","sector":"consulting","twitter_account":null,"city":"New York","employees":2000,"position":{"type":"Point","coordinates":[-73.821321,40.74931]}}
{"name":"WJT Global Solutions","sector":"consulting","twitter_account":null,"city":"Santiago","employees":2000,"position":{"type":"Point","coordinates":[-70.566466,-33.42536]}}
{"name":"WJT Global Solutions","sector":"consulting","twitter_account":null,"city":"Calcutta","employees":2000,"position":{"type":"Point","coordinates":[88.363895,22.572646]}}
{"name":"WJT Global Solutions","sector":"consulting","twitter_account":null,"city":"Shanghai","employees":2000,"position":{"type":"Point","coordinates":[121.475916,31.224353]}}
{"name":"WJT Global Solutions","sector":"consulting","twitter_account":null,"city":"New Delhi","employees":2000,"position":{"type":"Point","coordinates":[77.22496,28.635308]}}
{"name":"Cookstr","sector":"web","twitter_account":"cookstr","city":"New York","employees":10,"position":{"type":"Point","coordinates":[-74.001724,40.707268]}}
{"name":"IFXworks","sector":"consulting","twitter_account":null,"city":"Dulles","employees":4,"position":{"type":"Point","coordinates":[-77.423837,39.032142]}}
{"name":"PornLikeThat","sector":"software","twitter_account":null,"city":"Quebec","employees":1,"position":{"type":"Point","coordinates":[-71.215223,46.812754]}}
{"name":"Yipit","sector":"web","twitter_account":"yipit","city":"New York","employees":23,"position":{"type":"Point","coordinates":[-73.987764,40.744618]}}
{"name":"Tivix","sector":"software","twitter_account":"tivix","city":"San Francisco","employees":18,"position":{"type":"Point","coordinates":[-122.423132,37.792303]}}
{"name":"Virgance","sector":"web","twitter_account":"virgance","city":"San Francisco","employees":15,"position":{"type":"Point","coordinates":[-122.394958,37.781262]}}
{"name":"booksRhere","sector":"web","twitter_account":"WPTwits","city":"Los Angeles","employees":1,"position":{"type":"Point","coordinates":[-118.295117,34.024817]}}
{"name":"NewDocs","sector":"web","twitter_account":null,"city":"Ashland","employees":3,"position":{"type":"Point","coordinates":[-122.6883052,42.183715]}}
{"name":"148Apps","sector":"software","twitter_account":"148Apps","city":"San Francisco","employees":1,"position":{"type":"Point","coordinates":[-122.419204,37.775196]}}
{"name":"ForGrabs","sector":"web","twitter_account":null,"city":"Soquel","employees":5,"position":{"type":"Point","coordinates":[-121.958687,37.0391044]}}
{"name":"Aghreni Technologies","sector":"software","twitter_account":"aghreni","city":"Bangalore","employees":15,"position":{"type":"Point","coordinates":[77.5922642,12.9561278]}}
{"name":"Aghreni Technologies","sector":"software","twitter_account":"aghreni","city":"New York","employees":15,"position":{"type":"Point","coordinates":[-73.988071,40.744549]}}
{"name":"DreamBank","sector":"web","twitter_account":"dreambank","city":"Vancouver","employees":10,"position":{"type":"Point","coordinates":[-123.138565,49.263588]}}
{"name":"Allure Media","sector":"web","twitter_account":null,"city":"Darlinghurst","employees":15,"position":{"type":"Point","coordinates":[151.1936039,-33.8719926]}}
{"name":"aladom","sector":"web","twitter_account":"aladom","city":"Rennes","employees":12,"position":{"type":"Point","coordinates":[-1.6806152,48.110933]}}
{"name":"Commentag","sector":"web","twitter_account":null,"city":"Brussels","employees":3,"position":{"type":"Point","coordinates":[4.401195,50.7963208]}}
{"name":"Dorman Media","sector":"web","twitter_account":null,"city":"Spring Hill","employees":1,"position":{"type":"Point","coordinates":[-82.490137,28.4370407]}}
{"name":"Ascribe","sector":"software","twitter_account":null,"city":"Grand Rapids","employees":9,"position":{"type":"Point","coordinates":[-85.6734906,42.9608776]}}
{"name":"Balsamiq","sector":"web","twitter_account":"balsamiq","city":"Sacramento","employees":9,"position":{"type":"Point","coordinates":[-121.481826,38.517538]}}
{"name":"Aligned Global","sector":"software","twitter_account":null,"city":"Miami","employees":15,"position":{"type":"Point","coordinates":[-80.331681,25.769174]}}
{"name":"Clowdy","sector":"web","twitter_account":"clowdycom","city":"Manchester","employees":11,"position":{"type":"Point","coordinates":[-2.2439492,53.4837067]}}
{"name":"iStockCV","sector":"web","twitter_account":null,"city":"Louvain-la-Neuve   ,Ottignies","employees":1,"position":{"type":"Point","coordinates":[4.6102492,50.6713314]}}
{"name":"SocialToo","sector":"web","twitter_account":"socialtoo","city":"Salt Lake City","employees":2,"position":{"type":"Point","coordinates":[-111.967798,40.645225]}}
{"name":"cago","sector":"public_relations","twitter_account":"","city":"Chicago","employees":3,"position":{"type":"Point","coordinates":[-87.624333,41.879535]}}
{"name":"DoggieInk","sector":"web","twitter_account":null,"city":"Macon","employees":6,"position":{"type":"Point","coordinates":[-83.674786,32.850489]}}
{"name":"Double Encore","sector":"software","twitter_account":"doubleencore","city":"Denver","employees":42,"position":{"type":"Point","coordinates":[-104.955012,39.69263]}}
{"name":"Oggle Interactive","sector":"software","twitter_account":null,"city":"Vancouver","employees":4,"position":{"type":"Point","coordinates":[-123.1043395,49.2812342]}}
{"name":"Herrmann NA","sector":"web","twitter_account":"Bildkalender","city":"Las Vegas","employees":4,"position":{"type":"Point","coordinates":[-115.242203,36.1807572]}}
{"name":"Mortgages and Loans Ireland","sector":"public_relations","twitter_account":null,"city":"Dublin","employees":2,"position":{"type":"Point","coordinates":[-6.2769121,53.3498195]}}
{"name":"Carsala","sector":"web","twitter_account":"carsala","city":"Berkeley","employees":8,"position":{"type":"Point","coordinates":[-122.268354,37.870457]}}
{"name":"Tiiptop","sector":"web","twitter_account":null,"city":"Paris","employees":3,"position":{"type":"Point","coordinates":[2.3509871,48.8566667]}}
{"name":"GoalsOnTrack","sector":"software","twitter_account":"GoalsOnTrack","city":"Langley","employees":2,"position":{"type":"Point","coordinates":[-122.6643702,49.1261967]}}
{"name":"Wipee List","sector":"public_relations","twitter_account":"wipeelist","city":"Singapore","employees":2,"position":{"type":"Point","coordinates":[103.8319842,1.3183692]}}
{"name":"Speedchecker","sector":"web","twitter_account":null,"city":"Bristol","employees":2,"position":{"type":"Point","coordinates":[-2.6136797,51.4749263]}}
{"name":"Blue Parabola","sector":"consulting","twitter_account":null,"city":"Toronto","employees":3,"position":{"type":"Point","coordinates":[-79.386755,43.670233]}}
{"name":"Extanz","sector":"public_relations","twitter_account":"exanz","city":"Fort Collins","employees":10,"position":{"type":"Point","coordinates":[-105.1375908,40.5293254]}}
{"name":"PostMapper","sector":"web","twitter_account":null,"city":"Roswell","employees":1,"position":{"type":"Point","coordinates":[-84.377834,34.018504]}}
{"name":"Ethervision","sector":"consulting","twitter_account":null,"city":"Evanston","employees":5,"position":{"type":"Point","coordinates":[-87.720068,42.062669]}}
{"name":"People Capital","sector":"web","twitter_account":null,"city":"New York","employees":10,"position":{"type":"Point","coordinates":[-73.986951,40.756054]}}
{"name":"Fitnio","sector":"software","twitter_account":null,"city":"San Mateo","employees":3,"position":{"type":"Point","coordinates":[-122.3050823,37.5349925]}}
{"name":"JobsTAXI","sector":"web","twitter_account":"wearejobstaxi","city":"Singapore","employees":12,"position":{"type":"Point","coordinates":[103.842646,1.279684]}}
{"name":"Planzone","sector":"software","twitter_account":null,"city":"cedex","employees":17,"position":{"type":"Point","coordinates":[2.1346593,49.5332371]}}
{"name":"Montclair Advisors","sector":"consulting","twitter_account":"Montclairadvrs","city":"Oakland","employees":5,"position":{"type":"Point","coordinates":[-122.195779,37.82043]}}
{"name":"Foundry Interactive","sector":"public_relations","twitter_account":null,"city":"Seattle","employees":3,"position":{"type":"Point","coordinates":[-122.344595,47.6606589]}}
{"name":"MarketRiders","sector":"web","twitter_account":"MarketRiders","city":"Palo Alto","employees":4,"position":{"type":"Point","coordinates":[-121.9909454,37.8097439]}}
{"name":"Guaranteach","sector":"web","twitter_account":"","city":"Baltimore","employees":7,"position":{"type":"Point","coordinates":[-76.614442,39.30677]}}
{"name":"TrackMyPeople","sector":"web","twitter_account":null,"city":"Leuven","employees":3,"position":{"type":"Point","coordinates":[4.700737,50.867206]}}
{"name":"Renterval","sector":"web","twitter_account":null,"city":"Dallas","employees":2,"position":{"type":"Point","coordinates":[-96.797111,32.781078]}}
{"name":"Analytix On Demand","sector":"software","twitter_account":null,"city":"Irvine","employees":25,"position":{"type":"Point","coordinates":[-117.839046,33.67983]}}
{"name":"gliider","sector":"web","twitter_account":"mailglider","city":"Brooklyn","employees":5,"position":{"type":"Point","coordinates":[-73.989613,40.702692]}}
{"name":"Grapevine Talk","sector":"software","twitter_account":"","city":"London","employees":4,"position":{"type":"Point","coordinates":[-0.1262362,51.5001524]}}
{"name":"Woonky","sector":"public_relations","twitter_account":null,"city":"Buenos Aires","employees":10,"position":{"type":"Point","coordinates":[-58.434789,-34.5892412]}}
{"name":"Weddingdates","sector":"web","twitter_account":"weddingdates","city":"Cork","employees":2,"position":{"type":"Point","coordinates":[-8.5878882,52.6423449]}}
{"name":"Circle of Moms","sector":"web","twitter_account":"circleofmoms","city":"San Francisco","employees":9,"position":{"type":"Point","coordinates":[-122.3915063,37.7890183]}}
{"name":"Logicbowl","sector":"public_relations","twitter_account":null,"city":"Hyderabad","employees":10,"position":{"type":"Point","coordinates":[78.486671,17.385044]}}
{"name":"Heralsoft","sector":"web","twitter_account":null,"city":"Gijon","employees":2,"position":{"type":"Point","coordinates":[-5.665828,43.5222205]}}
{"name":"Unison Technologies","sector":"software","twitter_account":"unison","city":"New York","employees":30,"position":{"type":"Point","coordinates":[-73.9799007,40.7645772]}}
{"name":"able2know","sector":"web","twitter_account":"able2know","city":"Seattle","employees":5,"position":{"type":"Point","coordinates":[-122.335109,47.5990906]}}
{"name":"Voyij","sector":"web","twitter_account":"voyij","city":"Cupertino","employees":4,"position":{"type":"Point","coordinates":[-122.0304277,37.3183828]}}
{"name":"Diverse Ventures","sector":"web","twitter_account":"diningverse","city":"Erie","employees":4,"position":{"type":"Point","coordinates":[-80.1261226,42.1119336]}}
{"name":"Webzzle","sector":"web","twitter_account":null,"city":"Palo Alto","employees":10,"position":{"type":"Point","coordinates":[-122.1417,37.4417]}}
{"name":"Webzzle","sector":"web","twitter_account":null,"city":"Paris","employees":10,"position":{"type":"Point","coordinates":[0.4198481,43.1677247]}}
{"name":"Urbantastic!","sector":"public_relations","twitter_account":null,"city":"Vancouver","employees":2,"position":{"type":"Point","coordinates":[-123.1722103,49.2684335]}}
{"name":"MPLOYR","sector":"web","twitter_account":null,"city":"","employees":2,"position":{"type":"Point","coordinates":[-123.138565,49.263588]}}
{"name":"The Lost Jacket","sector":"public_relations","twitter_account":"stuartfoster","city":"Boston","employees":2,"position":{"type":"Point","coordinates":[-71.05781,42.35892]}}
{"name":"Reachoo","sector":"software","twitter_account":"reachoo","city":"Pompano Beach","employees":3,"position":{"type":"Point","coordinates":[-80.135487,26.2480738]}}
{"name":"popdat","sector":"web","twitter_account":null,"city":"IRVINGTON","employees":10,"position":{"type":"Point","coordinates":[-74.230704,40.727533]}}
{"name":"ZimpleMoney","sector":"software","twitter_account":"ZimpleMoney","city":"Costa Mesa","employees":8,"position":{"type":"Point","coordinates":[-117.9416077,33.6396749]}}
{"name":"Professional Blog Service","sector":"web","twitter_account":"edeckers","city":"Indianapolis","employees":4,"position":{"type":"Point","coordinates":[-86.120971,39.850348]}}
{"name":"Stax Networks","sector":"web","twitter_account":"CloudBees","city":"seattle","employees":8,"position":{"type":"Point","coordinates":[-122.347276,47.620973]}}
{"name":"StockTwits","sector":"web","twitter_account":"stocktwits","city":"San Diego","employees":12,"position":{"type":"Point","coordinates":[-117.168697,32.7161896]}}
{"name":"FutureTap","sector":"software","twitter_account":"futuretap","city":"Seefeld","employees":1,"position":{"type":"Point","coordinates":[11.1974291,48.0387806]}}
{"name":"Krabi ja Mask","sector":"software","twitter_account":"zimplit","city":"Tartu","employees":4,"position":{"type":"Point","coordinates":[26.7229199,58.3820245]}}
{"name":"Implied Solutions","sector":"software","twitter_account":null,"city":"Seattle","employees":1,"position":{"type":"Point","coordinates":[-122.3328401,47.6042663]}}
{"name":"CtoJ","sector":"consulting","twitter_account":null,"city":"Cologne","employees":4,"position":{"type":"Point","coordinates":[6.9410409,50.9471389]}}
{"name":"Userspots","sector":"consulting","twitter_account":null,"city":"Ankara","employees":4,"position":{"type":"Point","coordinates":[32.774928,39.898894]}}
{"name":"xzapps","sector":"software","twitter_account":null,"city":"Old Bridge","employees":2,"position":{"type":"Point","coordinates":[-122.4863492,37.7181398]}}
{"name":"CodeLean","sector":"software","twitter_account":"codelean","city":"Bagsvaerd","employees":15,"position":{"type":"Point","coordinates":[12.437582,55.7680455]}}
{"name":"MixMyGranola","sector":"web","twitter_account":"elementbars","city":"Miami","employees":3,"position":{"type":"Point","coordinates":[-80.191821,25.841678]}}
{"name":"Central Reservations","sector":"web","twitter_account":"","city":"Dun Laoghaire","employees":510,"position":{"type":"Point","coordinates":[-6.2644783,53.342689]}}
{"name":"Tsavo Agency","sector":"web","twitter_account":"Rebellion_Media","city":"Santa Monica","employees":15,"position":{"type":"Point","coordinates":[-118.4844228,34.0028373]}}
{"name":"espor","sector":"software","twitter_account":"espor","city":"Denver","employees":19,"position":{"type":"Point","coordinates":[-104.8943767,39.3926188]}}
{"name":"C2G","sector":"web","twitter_account":"Cost2Drive","city":"Great Falls","employees":5,"position":{"type":"Point","coordinates":[-77.293817,39.012377]}}
{"name":"MediaWheel","sector":"web","twitter_account":null,"city":"Atlanta","employees":7,"position":{"type":"Point","coordinates":[-84.335965,33.922157]}}
{"name":"GymFu","sector":"web","twitter_account":"GymFu","city":"Ringwood, Hampshire","employees":3,"position":{"type":"Point","coordinates":[-1.7884785,50.841938]}}
{"name":"RJMetrics","sector":"software","twitter_account":"RJMetrics","city":"Philadelphia","employees":20,"position":{"type":"Point","coordinates":[-75.1257381,39.9443552]}}
{"name":"Do You Wanna Hook Up?","sector":"web","twitter_account":null,"city":"New York","employees":3,"position":{"type":"Point","coordinates":[-73.9447994,40.5889016]}}
{"name":"facelovefinder","sector":"web","twitter_account":null,"city":"Torreon, Coahuila","employees":1,"position":{"type":"Point","coordinates":[-103.4174464,25.5230058]}}
{"name":"IAmInTown","sector":"web","twitter_account":null,"city":"Hoboken","employees":3,"position":{"type":"Point","coordinates":[-74.0348315,40.7370784]}}
{"name":"CureTogether","sector":"web","twitter_account":null,"city":"Mountain View","employees":3,"position":{"type":"Point","coordinates":[-122.072998,37.384297]}}
{"name":"Demotix","sector":"web","twitter_account":"demotix","city":"London","employees":8,"position":{"type":"Point","coordinates":[-0.2065907,51.5374249]}}
{"name":"TwittBot","sector":"web","twitter_account":null,"city":"Leawood","employees":1,"position":{"type":"Point","coordinates":[-94.616021,38.93842]}}
{"name":"eCampusCash","sector":"web","twitter_account":"","city":"Van Nuys","employees":3,"position":{"type":"Point","coordinates":[-74.294395,40.650291]}}
{"name":"Ricochets Interactive","sector":"consulting","twitter_account":null,"city":"Le Bourget du lac","employees":3,"position":{"type":"Point","coordinates":[5.8707318,45.646721]}}
{"name":"iugo","sector":"software","twitter_account":null,"city":"Wheeling","employees":5,"position":{"type":"Point","coordinates":[-80.7237385,40.0676659]}}
{"name":"iugo","sector":"software","twitter_account":null,"city":"Philadelphia","employees":5,"position":{"type":"Point","coordinates":[-75.191867,40.032121]}}
{"name":"MacMedic PRO","sector":"consulting","twitter_account":null,"city":"Franklin","employees":1,"position":{"type":"Point","coordinates":[-86.856457,35.933677]}}
{"name":"Pixel Spills","sector":"consulting","twitter_account":null,"city":"Jackson","employees":1,"position":{"type":"Point","coordinates":[-110.762347,43.479618]}}
{"name":"Lymabean","sector":"web","twitter_account":"","city":"Huntington Beach","employees":4,"position":{"type":"Point","coordinates":[-118.033495,33.742397]}}
{"name":"ZeroTouch","sector":"consulting","twitter_account":"","city":"Dublin","employees":5,"position":{"type":"Point","coordinates":[-6.2674937,53.344104]}}
{"name":"Otalo","sector":"web","twitter_account":null,"city":"Amherst","employees":2,"position":{"type":"Point","coordinates":[-72.4436464,42.3756007]}}
{"name":"Flowz","sector":"web","twitter_account":null,"city":"Troy","employees":4,"position":{"type":"Point","coordinates":[-85.794905,43.88487]}}
{"name":"ORY Software","sector":"web","twitter_account":null,"city":"Charlotte","employees":1,"position":{"type":"Point","coordinates":[-80.776641,35.058275]}}
{"name":"Trutoon","sector":"web","twitter_account":"","city":"Palo Alto","employees":5,"position":{"type":"Point","coordinates":[-122.1490582,37.4459832]}}
{"name":"Digital Meld","sector":"web","twitter_account":null,"city":"Houston","employees":5,"position":{"type":"Point","coordinates":[-95.527479,29.714229]}}
{"name":"One did it","sector":"web","twitter_account":null,"city":"Helsinki","employees":7,"position":{"type":"Point","coordinates":[24.9754678,60.206789]}}
{"name":"CalendarFly","sector":"web","twitter_account":"CalendarFly","city":"Pelham","employees":2,"position":{"type":"Point","coordinates":[-73.801901,40.904885]}}
{"name":"TalentEgg","sector":"web","twitter_account":null,"city":"Toronto","employees":3,"position":{"type":"Point","coordinates":[-79.3780255,43.6491109]}}
{"name":"Twtapps","sector":"web","twitter_account":"twtapps","city":"Montreal","employees":1,"position":{"type":"Point","coordinates":[-73.5825418,45.4928591]}}
{"name":"Trustworthy","sector":"web","twitter_account":"","city":"Los Angeles","employees":5,"position":{"type":"Point","coordinates":[-118.395346,34.049246]}}
{"name":"eShark Network","sector":"software","twitter_account":null,"city":"Warminster","employees":2,"position":{"type":"Point","coordinates":[-75.099101,40.197932]}}
{"name":"Blellow","sector":"web","twitter_account":null,"city":"San Antonio","employees":5,"position":{"type":"Point","coordinates":[-98.48972,29.414897]}}
{"name":"Feedscrub","sector":"web","twitter_account":null,"city":"Atlanta","employees":3,"position":{"type":"Point","coordinates":[-84.389663,33.754487]}}
{"name":"Ceylon Solutions","sector":"software","twitter_account":null,"city":"Denver","employees":13,"position":{"type":"Point","coordinates":[-105.092372,39.62574]}}
{"name":"sexietv","sector":"software","twitter_account":"","city":"london","employees":5,"position":{"type":"Point","coordinates":[-0.2075938,51.4213618]}}
{"name":"OutlookCloud","sector":"software","twitter_account":null,"city":"Sunnyvale","employees":10,"position":{"type":"Point","coordinates":[-122.0326019,37.3492097]}}
{"name":"AdJuggler","sector":"software","twitter_account":"adjuggler","city":"Alexandria","employees":27,"position":{"type":"Point","coordinates":[-77.164776,38.804559]}}
{"name":"SmallBusinessExpo","sector":"public_relations","twitter_account":null,"city":"Mission Viejo","employees":2,"position":{"type":"Point","coordinates":[-117.669199,33.56687]}}
{"name":"Fund Mojo","sector":"web","twitter_account":"FundMojo","city":"San Mateo","employees":2,"position":{"type":"Point","coordinates":[-122.286752,37.560236]}}
{"name":"Sixteen Ventures","sector":"consulting","twitter_account":"16v","city":"Arlington","employees":3,"position":{"type":"Point","coordinates":[-97.1955592,32.6826815]}}
{"name":"GrouperEye","sector":"web","twitter_account":null,"city":"Washington","employees":3,"position":{"type":"Point","coordinates":[-77.0852258,38.9169394]}}
{"name":"Dean Marshall Consultancy","sector":"consulting","twitter_account":"DMConsultancy","city":"Lancaster","employees":5,"position":{"type":"Point","coordinates":[-2.7993768,54.0648711]}}
{"name":"Onista","sector":"public_relations","twitter_account":null,"city":"Santa Clara","employees":3,"position":{"type":"Point","coordinates":[-121.9643745,37.3889943]}}
{"name":"midVentures","sector":"web","twitter_account":"midventures","city":"Chicago","employees":10,"position":{"type":"Point","coordinates":[-87.625677,41.885408]}}
{"name":"Enough Pepper","sector":"web","twitter_account":"","city":"Lisboa","employees":4,"position":{"type":"Point","coordinates":[-9.1427493,38.7509471]}}
{"name":"iplotz","sector":"public_relations","twitter_account":"iplotz","city":"Stephens City","employees":5,"position":{"type":"Point","coordinates":[-78.218254,39.0832204]}}
{"name":"trekaroo","sector":"web","twitter_account":"trekaroo","city":"Pacifica","employees":4,"position":{"type":"Point","coordinates":[-122.1235054,37.4561297]}}
{"name":"DooShare","sector":"web","twitter_account":"dooshare","city":"Macomb","employees":1,"position":{"type":"Point","coordinates":[-82.9178838,42.6547932]}}
{"name":"Leximo","sector":"web","twitter_account":"leximo","city":"Washington, D.C.","employees":2,"position":{"type":"Point","coordinates":[-77.050052,38.905242]}}
{"name":"Ruby50","sector":"public_relations","twitter_account":"ruby50ltd","city":"Croydon","employees":6,"position":{"type":"Point","coordinates":[-0.1855258,51.5174054]}}
{"name":"Pistachio Consulting","sector":"consulting","twitter_account":null,"city":"Boston","employees":1,"position":{"type":"Point","coordinates":[-71.0542339,42.3552011]}}
{"name":"KODA","sector":"web","twitter_account":"kodaus","city":"San Francisco","employees":15,"position":{"type":"Point","coordinates":[-122.40971,37.788796]}}
{"name":"KODA","sector":"web","twitter_account":"kodaus","city":"New Orleans","employees":15,"position":{"type":"Point","coordinates":[-90.0822015,29.9739941]}}
{"name":"Fredlund Media","sector":"consulting","twitter_account":null,"city":"V\u00c3\u00a4nersborg","employees":1,"position":{"type":"Point","coordinates":[12.3253048,58.3832154]}}
{"name":"Zankyou","sector":"web","twitter_account":"ZankyouUS","city":"Madrid","employees":15,"position":{"type":"Point","coordinates":[-3.6912754,40.6070897]}}
{"name":"Zankyou","sector":"web","twitter_account":"ZankyouUS","city":"Levallois Perret","employees":15,"position":{"type":"Point","coordinates":[2.2847419,48.8921396]}}
{"name":"Interacto","sector":"web","twitter_account":null,"city":"Heeze","employees":2,"position":{"type":"Point","coordinates":[5.5858466,51.3673409]}}
{"name":"Asurrent","sector":"web","twitter_account":null,"city":"Marietta","employees":3,"position":{"type":"Point","coordinates":[-84.495636,34.013247]}}
{"name":"Ontology2","sector":"web","twitter_account":null,"city":"Brooktondale","employees":2,"position":{"type":"Point","coordinates":[-76.356869,42.362886]}}
{"name":"TagMyEvent","sector":"web","twitter_account":"","city":"Houston","employees":10,"position":{"type":"Point","coordinates":[-95.457796,29.745861]}}
{"name":"Centillion","sector":"public_relations","twitter_account":null,"city":"Split","employees":5,"position":{"type":"Point","coordinates":[16.4389264,43.5141923]}}
{"name":"alteregoweb","sector":"web","twitter_account":"alteregoads","city":"Figueres, Girona","employees":1,"position":{"type":"Point","coordinates":[2.9608395,42.2674977]}}
{"name":"TalentEquity Solutions","sector":"web","twitter_account":"","city":"Noida","employees":5,"position":{"type":"Point","coordinates":[77.3159296,28.5846875]}}
{"name":"CollectiveSys","sector":"web","twitter_account":"","city":"Flushing","employees":1,"position":{"type":"Point","coordinates":[-73.8304895,40.7609224]}}
{"name":"Black Ninja Software","sector":"software","twitter_account":"blackninjasoft","city":"North Vancouver","employees":4,"position":{"type":"Point","coordinates":[-123.1172422,49.2792347]}}
{"name":"Showtime Studios","sector":"public_relations","twitter_account":"showtimestudios","city":"Birmingham","employees":3,"position":{"type":"Point","coordinates":[-1.9023414,52.4869442]}}
{"name":"AdventureDrop","sector":"web","twitter_account":null,"city":"San Jose","employees":6,"position":{"type":"Point","coordinates":[-121.9478049,37.3218356]}}
{"name":"JobsByRef","sector":"web","twitter_account":"","city":"Chennai","employees":10,"position":{"type":"Point","coordinates":[80.2481532,13.0292742]}}
{"name":"kinDragon","sector":"software","twitter_account":"","city":"Sarasota","employees":1,"position":{"type":"Point","coordinates":[-82.5294065,27.4081935]}}
{"name":"SEO Komodo","sector":"consulting","twitter_account":"seokomodo","city":"Miami Beach","employees":2,"position":{"type":"Point","coordinates":[-80.1210889,25.8636626]}}
{"name":"Zapproved","sector":"software","twitter_account":"Zapproved","city":"Portland","employees":27,"position":{"type":"Point","coordinates":[-122.8097,45.5251]}}
{"name":"FlowMingle","sector":"web","twitter_account":null,"city":"Lexington","employees":3,"position":{"type":"Point","coordinates":[-84.5091102,38.0488113]}}
{"name":"Mobiata","sector":"software","twitter_account":"","city":"Ann Arbor","employees":14,"position":{"type":"Point","coordinates":[-83.733276,42.277416]}}
{"name":"CanvasGrafix","sector":"web","twitter_account":null,"city":"St. Louis","employees":2,"position":{"type":"Point","coordinates":[-90.482766,38.675833]}}
{"name":"Mapplr","sector":"software","twitter_account":"mapplr","city":"Amsterdam","employees":2,"position":{"type":"Point","coordinates":[4.8864897,52.3722556]}}
{"name":"EchoCurrent Software","sector":"software","twitter_account":null,"city":"New Boston","employees":2,"position":{"type":"Point","coordinates":[-71.672268,42.942287]}}
{"name":"StickyPages","sector":"consulting","twitter_account":"stickypages","city":"Kelowna","employees":3,"position":{"type":"Point","coordinates":[-119.4583914,49.8900432]}}
{"name":"Rouse Media","sector":"public_relations","twitter_account":null,"city":"Coventry","employees":3,"position":{"type":"Point","coordinates":[-1.4761532,52.4087359]}}
{"name":"ExpertHub","sector":"web","twitter_account":"","city":"Pleasanton","employees":35,"position":{"type":"Point","coordinates":[-121.9009329,37.6621228]}}
{"name":"Neutron Creations","sector":"consulting","twitter_account":"NeutronUK","city":"London","employees":2,"position":{"type":"Point","coordinates":[-0.1597092,51.519772]}}
{"name":"studdex","sector":"web","twitter_account":"","city":"Berlin","employees":10,"position":{"type":"Point","coordinates":[7.3554365,51.4523335]}}
{"name":"Tinychat","sector":"web","twitter_account":"tinychat","city":"Glen Cove","employees":5,"position":{"type":"Point","coordinates":[-72.5196907,42.3756409]}}
{"name":"Transifex","sector":"software","twitter_account":"transifex","city":"Menlo Park","employees":12,"position":{"type":"Point","coordinates":[-122.1842112,37.4513629]}}
{"name":"iCelebrate","sector":"web","twitter_account":null,"city":"Palo Alto","employees":3,"position":{"type":"Point","coordinates":[-122.1632941,37.4441726]}}
{"name":"StarWind Software","sector":"software","twitter_account":"StarWindSAN","city":"Burlington","employees":42,"position":{"type":"Point","coordinates":[-71.204372,42.487232]}}
{"name":"Hireglyphics","sector":"software","twitter_account":"Hireglyphics","city":"Toronto","employees":7,"position":{"type":"Point","coordinates":[-79.4264794,43.6366465]}}
{"name":"Wine by the Bar","sector":"software","twitter_account":"winebythebar","city":"Cary","employees":1,"position":{"type":"Point","coordinates":[-78.792841,35.820177]}}
{"name":"VEO Media Vietnam","sector":"consulting","twitter_account":"","city":"Ho Chi Minh City","employees":10,"position":{"type":"Point","coordinates":[106.6412027,10.8024304]}}
{"name":"Gurutoy","sector":"public_relations","twitter_account":null,"city":"Aiea","employees":1,"position":{"type":"Point","coordinates":[-157.8867858,21.3950991]}}
{"name":"Purebred Network","sector":"web","twitter_account":"PurebredNetwork","city":"Palo Alto","employees":3,"position":{"type":"Point","coordinates":[-122.159291,37.443]}}
{"name":"Interlaced Systems","sector":"web","twitter_account":"officialweegy","city":"Durango","employees":6,"position":{"type":"Point","coordinates":[-107.8792679,37.2859182]}}
{"name":"Frontier Service Design","sector":"consulting","twitter_account":null,"city":"Malvern","employees":6,"position":{"type":"Point","coordinates":[-75.515376,40.054547]}}
{"name":"Startup Revival","sector":"public_relations","twitter_account":null,"city":"San Francisco","employees":1,"position":{"type":"Point","coordinates":[-122.419204,37.775196]}}
{"name":"Coupon Tweet","sector":"web","twitter_account":"CouponTweet","city":"Chicago","employees":12,"position":{"type":"Point","coordinates":[-87.624333,41.879535]}}
{"name":"CitySpur","sector":"public_relations","twitter_account":null,"city":"Scottsdale","employees":17,"position":{"type":"Point","coordinates":[-111.909805,33.487056]}}
{"name":"SeatKarma","sector":"web","twitter_account":"SeatKarma","city":"Fullerton","employees":2,"position":{"type":"Point","coordinates":[-95.452352,29.717881]}}
{"name":"AppZero","sector":"software","twitter_account":"appzero_inc","city":"Andover","employees":50,"position":{"type":"Point","coordinates":[-71.1469003,42.6751888]}}
{"name":"PebbleForge","sector":"software","twitter_account":"pebbleforge","city":"KOCHI, KERALA","employees":4,"position":{"type":"Point","coordinates":[76.2594981,9.9396253]}}
{"name":"TwitterCorp","sector":"web","twitter_account":null,"city":"College Place","employees":1,"position":{"type":"Point","coordinates":[-118.378229,46.0439]}}
{"name":"howsimple","sector":"web","twitter_account":"howsimple","city":"IDYLLWILD","employees":12,"position":{"type":"Point","coordinates":[-116.7732162,33.7836802]}}
{"name":"Scrobl","sector":"software","twitter_account":"","city":"Kiev","employees":1,"position":{"type":"Point","coordinates":[30.503828,50.453629]}}
{"name":"Open Web Technology","sector":"consulting","twitter_account":"openwt","city":"Geneva","employees":40,"position":{"type":"Point","coordinates":[6.1382324,46.1986292]}}
{"name":"Optify","sector":"software","twitter_account":"optify","city":"Seattle","employees":45,"position":{"type":"Point","coordinates":[-122.333359,47.603364]}}
{"name":"Viridity Software","sector":"software","twitter_account":"APCNorthAmerica","city":"Burlington","employees":22,"position":{"type":"Point","coordinates":[-71.1986329,42.4871509]}}
{"name":"The Vertical Action Group","sector":"consulting","twitter_account":null,"city":"San Francisco","employees":10,"position":{"type":"Point","coordinates":[-122.4000032,37.7983181]}}
{"name":"BrandFolium Corporation","sector":"web","twitter_account":"brandfolium","city":"Sunnyvale","employees":2,"position":{"type":"Point","coordinates":[-122.036849,37.369195]}}
{"name":"Wee Web","sector":"web","twitter_account":"weeweb","city":"New York","employees":5,"position":{"type":"Point","coordinates":[-73.986951,40.756054]}}
{"name":"rent2friend","sector":"web","twitter_account":null,"city":"London","employees":1,"position":{"type":"Point","coordinates":[-0.1262362,51.5001524]}}
{"name":"VideoCustomizer","sector":"public_relations","twitter_account":"videocustomizer","city":"New York","employees":20,"position":{"type":"Point","coordinates":[-73.9453758,40.778334]}}
{"name":"IGLOO Software","sector":"software","twitter_account":"IGLOOSoftware","city":"Kitchener","employees":50,"position":{"type":"Point","coordinates":[-80.487328,43.4496954]}}
{"name":"Dinsk","sector":"software","twitter_account":null,"city":"Kirkland","employees":3,"position":{"type":"Point","coordinates":[-122.2090504,47.723138]}}
{"name":"VitalLock","sector":"web","twitter_account":"VitalLock","city":"Cambridge","employees":4,"position":{"type":"Point","coordinates":[-71.083762,42.362856]}}
{"name":"Sentry Parental Controls","sector":"software","twitter_account":null,"city":"Manchester","employees":5,"position":{"type":"Point","coordinates":[-2.2550847,53.5195474]}}
{"name":"OBE Pro","sector":"software","twitter_account":null,"city":"Indian Harbour Beach","employees":4,"position":{"type":"Point","coordinates":[-80.5883964,28.1524632]}}
{"name":"Gifteer","sector":"web","twitter_account":null,"city":"Lyon","employees":4,"position":{"type":"Point","coordinates":[4.8343287,45.767299]}}
{"name":"Scopial Fashions","sector":"web","twitter_account":null,"city":"Thane West","employees":4,"position":{"type":"Point","coordinates":[72.9637728,19.2025218]}}
{"name":"IrishCentral","sector":"public_relations","twitter_account":null,"city":"New York","employees":20,"position":{"type":"Point","coordinates":[-73.989276,40.74828]}}
{"name":"Veridictus Associates","sector":"consulting","twitter_account":null,"city":"Manitou Springs","employees":1,"position":{"type":"Point","coordinates":[-104.890317,38.860989]}}
{"name":"yiid","sector":"web","twitter_account":"yiid","city":"Weinheim","employees":9,"position":{"type":"Point","coordinates":[8.6759098,49.5507557]}}
{"name":"Cuteness Pet Community","sector":"web","twitter_account":"Cuteness_com","city":"Venice","employees":2,"position":{"type":"Point","coordinates":[-118.462421,33.989029]}}
{"name":"Habidoo","sector":"web","twitter_account":null,"city":"Vancouver","employees":3,"position":{"type":"Point","coordinates":[-123.1333467,49.278995]}}
{"name":"StartUpHire","sector":"web","twitter_account":"StartUpHire","city":"Vienna","employees":5,"position":{"type":"Point","coordinates":[-77.222355,38.912141]}}
{"name":"Pitchero","sector":"web","twitter_account":"Pitchero","city":"Leeds","employees":5,"position":{"type":"Point","coordinates":[-1.524702,53.687153]}}
{"name":"JoggingBuddy","sector":"web","twitter_account":"joggingbuddy","city":"Cambridge","employees":3,"position":{"type":"Point","coordinates":[0.1312368,52.2025441]}}
{"name":"The Magnetic Think","sector":"web","twitter_account":null,"city":"Brussels","employees":2,"position":{"type":"Point","coordinates":[4.3358472,50.8076447]}}
{"name":"Fotomina","sector":"web","twitter_account":null,"city":"Kirkkonummi","employees":4,"position":{"type":"Point","coordinates":[24.4280745,60.123399]}}
{"name":"StickyStreet","sector":"software","twitter_account":"stickystreet","city":"Washington","employees":7,"position":{"type":"Point","coordinates":[-77.068963,38.897145]}}
{"name":"CMS Critic","sector":"web","twitter_account":"cmscritic","city":"Edmonton","employees":4,"position":{"type":"Point","coordinates":[-113.493698,53.540941]}}
{"name":"Setster","sector":"software","twitter_account":"setster","city":"Hollywood","employees":3,"position":{"type":"Point","coordinates":[-118.325739,34.0909811]}}
{"name":"AmberBit","sector":"software","twitter_account":null,"city":"Bia\u00c5\u201aystok","employees":5,"position":{"type":"Point","coordinates":[23.1540917,53.1371088]}}
{"name":"GameChanger Media","sector":"software","twitter_account":"GCsports","city":"New York","employees":20,"position":{"type":"Point","coordinates":[-74.0136605,40.7078343]}}
{"name":"ProtoShare","sector":"software","twitter_account":"ProtoShare","city":"Portland","employees":15,"position":{"type":"Point","coordinates":[-122.675255,45.519475]}}
{"name":"Ashe Media Holdings","sector":"web","twitter_account":"","city":"","employees":5,"position":{"type":"Point","coordinates":[-84.338429,33.884218]}}
{"name":"SwapBeats","sector":"software","twitter_account":"SwapBeatsCo","city":"Minneapolis","employees":12,"position":{"type":"Point","coordinates":[-93.264351,44.977482]}}
{"name":"Gate 53|10 Technologies","sector":"web","twitter_account":"","city":"Hamburg","employees":4,"position":{"type":"Point","coordinates":[10.0184565,53.5736401]}}
{"name":"RockDex","sector":"web","twitter_account":"rockdex","city":"Omaha","employees":4,"position":{"type":"Point","coordinates":[-95.942336,41.259751]}}
{"name":"Ranker","sector":"web","twitter_account":"Ranker","city":"Los Angeles","employees":12,"position":{"type":"Point","coordinates":[-118.325739,34.1012181]}}
{"name":"Touch Ahead Software","sector":"software","twitter_account":"TouchAhead","city":"Boston","employees":10,"position":{"type":"Point","coordinates":[-71.0605985,42.3503375]}}
{"name":"Tongal","sector":"web","twitter_account":"tongal","city":"Santa Monica","employees":8,"position":{"type":"Point","coordinates":[-118.489748,34.007112]}}
{"name":"Neovada","sector":"web","twitter_account":"","city":"Oslo","employees":16,"position":{"type":"Point","coordinates":[10.7963809,59.9137459]}}
{"name":"ShopaService","sector":"web","twitter_account":null,"city":"NJ","employees":15,"position":{"type":"Point","coordinates":[-74.10081,40.827627]}}
{"name":"iPlanmaker","sector":"software","twitter_account":null,"city":"Chicago","employees":6,"position":{"type":"Point","coordinates":[-87.6416957,41.8719878]}}
{"name":"Link Trigger","sector":"software","twitter_account":"","city":"Fort Lauderdale","employees":7,"position":{"type":"Point","coordinates":[-80.1510951,26.2032036]}}
{"name":"Blog Traffic Exchange","sector":"web","twitter_account":"_BTE","city":"Menlo Park","employees":1,"position":{"type":"Point","coordinates":[-122.1802812,37.4484914]}}
{"name":"LAGrapeVine","sector":"web","twitter_account":null,"city":"Oxnard","employees":1,"position":{"type":"Point","coordinates":[-119.186443,34.230406]}}
{"name":"Think Orange","sector":"software","twitter_account":"thinkorangept","city":"Lisboa","employees":4,"position":{"type":"Point","coordinates":[-9.178734,38.703497]}}
{"name":"Synonym","sector":"public_relations","twitter_account":null,"city":"Boulder","employees":9,"position":{"type":"Point","coordinates":[-105.585771,41.310557]}}
{"name":"Synonym","sector":"public_relations","twitter_account":null,"city":"Chicago","employees":9,"position":{"type":"Point","coordinates":[-87.624333,41.879535]}}
{"name":"Aigc middleast","sector":"public_relations","twitter_account":"aigcmiddleast","city":"dallas","employees":5,"position":{"type":"Point","coordinates":[-96.740444,32.920073]}}
{"name":"crush tweet","sector":"software","twitter_account":null,"city":"dallas","employees":1,"position":{"type":"Point","coordinates":[-96.740444,32.920073]}}
{"name":"Loop11","sector":"software","twitter_account":"Loop11","city":"South Melbourne","employees":5,"position":{"type":"Point","coordinates":[144.9563945,-37.8361]}}
{"name":"upad","sector":"web","twitter_account":null,"city":"London","employees":8,"position":{"type":"Point","coordinates":[-0.2023958,51.5382894]}}
{"name":"Trigora","sector":"web","twitter_account":null,"city":"Rosanna","employees":7,"position":{"type":"Point","coordinates":[145.065044,-37.742893]}}
{"name":"Smallaa","sector":"web","twitter_account":null,"city":"San Jose","employees":5,"position":{"type":"Point","coordinates":[-121.928393,37.39458]}}
{"name":"CineSoft","sector":"software","twitter_account":"cerebro_en","city":"Moscow","employees":5,"position":{"type":"Point","coordinates":[37.6899674,55.7794043]}}
{"name":"Joobili","sector":"web","twitter_account":"joobili","city":"Budapest","employees":2,"position":{"type":"Point","coordinates":[19.0284923,47.4953663]}}
{"name":"Restox","sector":"web","twitter_account":null,"city":"","employees":3,"position":{"type":"Point","coordinates":[-0.1419622,51.421686]}}
{"name":"BoardEvals","sector":"software","twitter_account":"boardevals","city":"El Dorado Hills","employees":5,"position":{"type":"Point","coordinates":[-121.084432,38.709006]}}
{"name":"Antelink","sector":"software","twitter_account":"antelink","city":"Paris 10\u00c3\u00a8me","employees":10,"position":{"type":"Point","coordinates":[2.3660117,48.8524775]}}
{"name":"MyHandle","sector":"public_relations","twitter_account":null,"city":"Jersey","employees":6,"position":{"type":"Point","coordinates":[-2.1077539,49.1856229]}}
{"name":"djacap","sector":"consulting","twitter_account":"djacap","city":"Duesseldorf","employees":4,"position":{"type":"Point","coordinates":[6.770176,51.2132396]}}
{"name":"watercompare","sector":"web","twitter_account":null,"city":"london","employees":2,"position":{"type":"Point","coordinates":[-0.1262362,51.5001524]}}
{"name":"Jumbilo","sector":"software","twitter_account":null,"city":"Eagle Heights","employees":5,"position":{"type":"Point","coordinates":[153.2075297,-27.917488]}}
{"name":"THE SYSTEM ARCHITECT","sector":"consulting","twitter_account":"tsarchitect","city":"Dallas","employees":15,"position":{"type":"Point","coordinates":[-96.797111,32.781078]}}
{"name":"Fresh !","sector":"consulting","twitter_account":null,"city":"Boulogne","employees":9,"position":{"type":"Point","coordinates":[2.2430452,48.8424529]}}
{"name":"Compel Interaction","sector":"consulting","twitter_account":"compel","city":"Ann Arbor","employees":10,"position":{"type":"Point","coordinates":[-83.813914,42.281569]}}
{"name":"Compel Interaction","sector":"consulting","twitter_account":"compel","city":"Chicago","employees":10,"position":{"type":"Point","coordinates":[-87.628933,41.875026]}}
{"name":"Compel Interaction","sector":"consulting","twitter_account":"compel","city":"Traverse City","employees":10,"position":{"type":"Point","coordinates":[-85.6378062,44.7871116]}}
{"name":"Knag Enterprises","sector":"software","twitter_account":"justinknag","city":"Boulder","employees":1,"position":{"type":"Point","coordinates":[-105.270527,40.013336]}}
{"name":"Tweenjo","sector":"web","twitter_account":null,"city":"London","employees":2,"position":{"type":"Point","coordinates":[-0.1459893,51.5137747]}}
{"name":"psychiatryRounds","sector":"web","twitter_account":"psychiatry_md","city":"Mountain View","employees":10,"position":{"type":"Point","coordinates":[-122.073003,37.400465]}}
{"name":"Online Outbox","sector":"public_relations","twitter_account":"onlineoutbox","city":"ATLANTA","employees":10,"position":{"type":"Point","coordinates":[-84.3378955,33.9349004]}}
{"name":"Wijng","sector":"web","twitter_account":null,"city":"Graz","employees":3,"position":{"type":"Point","coordinates":[15.454803,47.0743531]}}
{"name":"Lunch","sector":"web","twitter_account":"lunch_com","city":"","employees":12,"position":{"type":"Point","coordinates":[-118.3864712,33.903022]}}
{"name":"Space Spare","sector":"web","twitter_account":"","city":"London","employees":2,"position":{"type":"Point","coordinates":[-0.1365725,51.5603951]}}
{"name":"Webteilchen","sector":"web","twitter_account":"Webteilchen","city":"Berlin","employees":2,"position":{"type":"Point","coordinates":[13.6281888,52.5296736]}}
{"name":"TrialX","sector":"web","twitter_account":"trialx","city":"New York","employees":5,"position":{"type":"Point","coordinates":[-73.9893359,40.7277434]}}
{"name":"quoobs","sector":"web","twitter_account":null,"city":"Berlin","employees":3,"position":{"type":"Point","coordinates":[13.4663753,52.5189904]}}
{"name":"TikiWade","sector":"web","twitter_account":null,"city":"Plymouth","employees":2,"position":{"type":"Point","coordinates":[-93.442929,45.040276]}}
{"name":"1calendar","sector":"software","twitter_account":"1calendar","city":"Copenhagen","employees":8,"position":{"type":"Point","coordinates":[12.5751278,55.6770321]}}
{"name":"1calendar","sector":"software","twitter_account":"1calendar","city":"Copenhagen","employees":8,"position":{"type":"Point","coordinates":[12.524884,55.6802318]}}
{"name":"Milo","sector":"web","twitter_account":"miloshopping","city":"Palo Alto","employees":20,"position":{"type":"Point","coordinates":[-122.163352,37.444531]}}
{"name":"Belighted","sector":"web","twitter_account":"belighted","city":"Louvain-la-Neuve","employees":13,"position":{"type":"Point","coordinates":[4.6102492,50.6713314]}}
{"name":"all140","sector":"web","twitter_account":"","city":"Vienna","employees":4,"position":{"type":"Point","coordinates":[16.3736319,48.2114213]}}
{"name":"HariOmTechnologies","sector":"software","twitter_account":null,"city":"Bhopal","employees":20,"position":{"type":"Point","coordinates":[77.4589032,23.2771102]}}
{"name":"AlphaPoint Technology","sector":"software","twitter_account":"AlphaPointTech","city":"Sarasota","employees":10,"position":{"type":"Point","coordinates":[-82.423,27.3858]}}
{"name":"GroupieGuide","sector":"web","twitter_account":null,"city":"Seattle","employees":4,"position":{"type":"Point","coordinates":[-122.3374372,47.6042792]}}
{"name":"Ahlera","sector":"public_relations","twitter_account":null,"city":"Montevideo","employees":4,"position":{"type":"Point","coordinates":[-56.1702161,-34.8910198]}}
{"name":"Buildify","sector":"consulting","twitter_account":null,"city":"Menlo Park","employees":10,"position":{"type":"Point","coordinates":[-122.1802812,37.4484914]}}
{"name":"Krumlr","sector":"web","twitter_account":"","city":"Avondale Estates","employees":1,"position":{"type":"Point","coordinates":[-84.256139,33.780472]}}
{"name":"PaperSports","sector":"web","twitter_account":null,"city":"Tulsa","employees":2,"position":{"type":"Point","coordinates":[-95.975663,36.133354]}}
{"name":"Paydro","sector":"software","twitter_account":"arjenschat","city":"Amsterdam","employees":0,"position":{"type":"Point","coordinates":[4.8926966,52.3646031]}}
{"name":"Servo Software","sector":"software","twitter_account":"","city":"San Mateo","employees":40,"position":{"type":"Point","coordinates":[-122.292146,37.552262]}}
{"name":"Worky","sector":"web","twitter_account":"workyworks","city":"Dublin","employees":16,"position":{"type":"Point","coordinates":[-6.2674937,53.344104]}}
{"name":"Varsity Outreach","sector":"web","twitter_account":"VarsityOutreach","city":"Washington","employees":4,"position":{"type":"Point","coordinates":[-77.036972,38.93097]}}
{"name":"OCTALINE","sector":"web","twitter_account":"","city":"Levallois-Perret","employees":2,"position":{"type":"Point","coordinates":[2.2863338,48.8964115]}}
{"name":"Book'd","sector":"software","twitter_account":"bookd","city":"Columbia","employees":1,"position":{"type":"Point","coordinates":[-92.3227556,38.9569894]}}
{"name":"makandra","sector":"software","twitter_account":"","city":"Augsburg","employees":8,"position":{"type":"Point","coordinates":[10.9059804,48.3400291]}}
{"name":"Statugle","sector":"web","twitter_account":"","city":"Chicago","employees":1,"position":{"type":"Point","coordinates":[-87.6531805,41.9205483]}}
{"name":"DP7 Digital","sector":"software","twitter_account":"","city":"Sao Paulo","employees":6,"position":{"type":"Point","coordinates":[-46.6773686,-23.5815208]}}
{"name":"DP7 Digital","sector":"software","twitter_account":"","city":"Florianopolis","employees":6,"position":{"type":"Point","coordinates":[-48.5483418,-27.5995476]}}
{"name":"Wetoku","sector":"public_relations","twitter_account":"wetoku","city":"Seoul","employees":4,"position":{"type":"Point","coordinates":[127.0373502,37.5009759]}}
{"name":"JustProto","sector":"software","twitter_account":"uxpin","city":"Gdynia","employees":11,"position":{"type":"Point","coordinates":[18.5416342,54.520135]}}
{"name":"NecesCity","sector":"web","twitter_account":"NecesCity","city":"Hong Kong","employees":4,"position":{"type":"Point","coordinates":[114.150564,22.334148]}}
{"name":"Fan","sector":"consulting","twitter_account":"","city":"Mar del Plata","employees":10,"position":{"type":"Point","coordinates":[-57.5538238,-37.9924155]}}
{"name":"ToolzDO","sector":"web","twitter_account":"toolzdo","city":"Coconut Creek","employees":1,"position":{"type":"Point","coordinates":[-80.186473,26.280346]}}
{"name":"ReSolutions LLC","sector":"consulting","twitter_account":"shawngoesgreen","city":"Birmingham","employees":2,"position":{"type":"Point","coordinates":[-86.7935892,33.476946]}}
{"name":"Bueno Inc","sector":"public_relations","twitter_account":"","city":"Miami","employees":15,"position":{"type":"Point","coordinates":[-80.1866834,25.8107412]}}
{"name":"jamWee","sector":"web","twitter_account":"jamweeDOTcom","city":"Woobridge","employees":5,"position":{"type":"Point","coordinates":[-74.283346,40.555566]}}
{"name":"Hostarting","sector":"web","twitter_account":"hostarting","city":"Toledo","employees":2,"position":{"type":"Point","coordinates":[-4.0210296,39.8725119]}}
{"name":"Centic","sector":"software","twitter_account":"","city":"Odense S","employees":3,"position":{"type":"Point","coordinates":[10.3947844,55.3581088]}}
{"name":"expertnews","sector":"web","twitter_account":"kwkrass","city":"Hamburg","employees":1,"position":{"type":"Point","coordinates":[9.9819779,53.5688101]}}
{"name":"Flaggpole","sector":"web","twitter_account":"flaggpole","city":"Seattle","employees":4,"position":{"type":"Point","coordinates":[-122.347276,47.620973]}}
{"name":"Pixlr","sector":"software","twitter_account":"pixlr","city":"Stockholm","employees":2,"position":{"type":"Point","coordinates":[18.0644881,59.3327881]}}
{"name":"ReferenceBot","sector":"web","twitter_account":"referencebotcom","city":"West Palm Beach","employees":1,"position":{"type":"Point","coordinates":[-80.0520862,26.706239]}}
{"name":"The Resumator","sector":"software","twitter_account":"TheResumator","city":"Pittsburgh","employees":40,"position":{"type":"Point","coordinates":[-80.001933,40.438423]}}
{"name":"Sponty","sector":"web","twitter_account":"thesponty","city":"Cambridge","employees":10,"position":{"type":"Point","coordinates":[-71.0814466,42.3672873]}}
{"name":"Funnela","sector":"software","twitter_account":"funnela","city":"Pozna\u00c5\u201e","employees":2,"position":{"type":"Point","coordinates":[16.8489579,52.298342]}}
{"name":"AppUseful","sector":"web","twitter_account":"usefulwebapps","city":"Austin","employees":7,"position":{"type":"Point","coordinates":[-97.7389543,30.2961708]}}
{"name":"ServiceSphere","sector":"consulting","twitter_account":"servicesphere","city":"Denver","employees":15,"position":{"type":"Point","coordinates":[-104.934232,39.755014]}}
{"name":"IndiaOnAPage","sector":"software","twitter_account":"gopalagarwal11","city":"Bangalore","employees":8,"position":{"type":"Point","coordinates":[77.6101165,12.9164537]}}
{"name":"Nalts Consulting","sector":"consulting","twitter_account":"nalts","city":"Doylestown","employees":1,"position":{"type":"Point","coordinates":[-75.1135236,40.3113504]}}
{"name":"ArtNeighbor","sector":"web","twitter_account":"artneighbor","city":"New York City","employees":5,"position":{"type":"Point","coordinates":[-73.9918181,40.7489381]}}
{"name":"Primediart","sector":"software","twitter_account":"primediart","city":"Kolkata","employees":10,"position":{"type":"Point","coordinates":[88.40286,22.5985389]}}
{"name":"sipgate","sector":"public_relations","twitter_account":"sipgate","city":"San Francisco","employees":4,"position":{"type":"Point","coordinates":[-122.4020588,37.7919639]}}
{"name":"Movip","sector":"web","twitter_account":"moviptv","city":"Lisbon","employees":2,"position":{"type":"Point","coordinates":[-9.135517,38.7071631]}}
{"name":"OnePage","sector":"web","twitter_account":"myOnePage","city":"Birmingham","employees":2,"position":{"type":"Point","coordinates":[-1.5613493,53.3706564]}}
{"name":"Exploroo Pty Ltd","sector":"web","twitter_account":"exploroo","city":"Gold Coast, QLD","employees":11,"position":{"type":"Point","coordinates":[153.4375,-28.048422]}}
{"name":"FindandSmile","sector":"web","twitter_account":"findandsmile","city":"Karlsruhe","employees":2,"position":{"type":"Point","coordinates":[8.4649954,48.9974246]}}
{"name":"Udorse","sector":"web","twitter_account":"udorse","city":"New York","employees":3,"position":{"type":"Point","coordinates":[-73.986951,40.756054]}}
{"name":"YesOrNow","sector":"web","twitter_account":"yesornow","city":"Paris","employees":3,"position":{"type":"Point","coordinates":[2.336453,48.882769]}}
{"name":"HURRYCAM","sector":"web","twitter_account":"","city":"Paris","employees":5,"position":{"type":"Point","coordinates":[2.3509871,48.8566667]}}
{"name":"Zookel","sector":"web","twitter_account":"paulduggan","city":"London","employees":10,"position":{"type":"Point","coordinates":[-0.0994596,51.5203268]}}
{"name":"Nirvana","sector":"software","twitter_account":"nirvanahq","city":"Montreal","employees":3,"position":{"type":"Point","coordinates":[-73.5673333,45.5058782]}}
{"name":"Finest Expert","sector":"web","twitter_account":"finestexpert","city":"San Francisco","employees":3,"position":{"type":"Point","coordinates":[-122.419204,37.775196]}}
{"name":"Bar Exchange","sector":"web","twitter_account":"barexchange","city":"London","employees":10,"position":{"type":"Point","coordinates":[-0.1525048,51.5395914]}}
{"name":"Buddingup","sector":"web","twitter_account":"Buddingup","city":"Waterloo","employees":2,"position":{"type":"Point","coordinates":[-80.534491,43.477552]}}
{"name":"One Simple Move","sector":"web","twitter_account":"onesimplemove","city":"San Francisco","employees":4,"position":{"type":"Point","coordinates":[-122.402922,37.800482]}}
{"name":"ZIPQODE","sector":"web","twitter_account":"zipqode","city":"Philadelphia","employees":1,"position":{"type":"Point","coordinates":[-75.163808,39.951639]}}
{"name":"Eventric","sector":"software","twitter_account":"eventric","city":"Chicago","employees":10,"position":{"type":"Point","coordinates":[-87.6664837,41.9174637]}}
{"name":"Strategist News","sector":"web","twitter_account":"strategistnews","city":"New York","employees":4,"position":{"type":"Point","coordinates":[-73.9918181,40.7489381]}}
{"name":"Disrupto","sector":"web","twitter_account":"disrupto","city":"New York","employees":7,"position":{"type":"Point","coordinates":[-73.9565551,40.714279]}}
{"name":"HomePros","sector":"software","twitter_account":"HomePros","city":"Austin","employees":15,"position":{"type":"Point","coordinates":[-97.739316,30.43385]}}
{"name":"Ykone","sector":"web","twitter_account":"ykone","city":"Paris","employees":10,"position":{"type":"Point","coordinates":[2.3509871,48.8566667]}}
{"name":"Novelty Systems","sector":"consulting","twitter_account":"noveltysystems","city":"Gainesville","employees":0,"position":{"type":"Point","coordinates":[-82.4102628,29.5950852]}}
{"name":"Novelty Systems","sector":"consulting","twitter_account":"noveltysystems","city":"Naples","employees":0,"position":{"type":"Point","coordinates":[-81.5555,26.3926]}}
{"name":"ResuWe","sector":"software","twitter_account":"resuwe","city":"Laguna Beach","employees":5,"position":{"type":"Point","coordinates":[-117.7769669,33.5341548]}}
{"name":"Startlike","sector":"web","twitter_account":"Startlike","city":"Columbia","employees":8,"position":{"type":"Point","coordinates":[-81.018312,34.002737]}}
{"name":"Enternships","sector":"web","twitter_account":"enternships","city":"London","employees":15,"position":{"type":"Point","coordinates":[-0.1038219,51.5215279]}}
{"name":"B32TRUST","sector":"software","twitter_account":"b32trust","city":"Paris","employees":10,"position":{"type":"Point","coordinates":[2.3509871,48.8566667]}}
{"name":"Kimengi","sector":"web","twitter_account":"kimengi","city":"Amsterdam","employees":5,"position":{"type":"Point","coordinates":[4.8852747,52.3735592]}}
{"name":"Joroto","sector":"web","twitter_account":"joroto","city":"Cleveland","employees":3,"position":{"type":"Point","coordinates":[-81.165981,41.701368]}}
{"name":"Kvittar","sector":"web","twitter_account":"kvittar","city":"Malm\u00f6","employees":4,"position":{"type":"Point","coordinates":[12.9950742,55.6057989]}}
{"name":"Peekspy","sector":"web","twitter_account":"","city":"Singapore","employees":5,"position":{"type":"Point","coordinates":[103.8510535,1.3427648]}}
{"name":"OnlineMQ","sector":"software","twitter_account":"onlinemq","city":"Den-Haag","employees":5,"position":{"type":"Point","coordinates":[4.3016891,52.0889889]}}
{"name":"Taxi Fares app","sector":"software","twitter_account":"taxifares","city":"Madrid","employees":5,"position":{"type":"Point","coordinates":[-3.6990948,40.4244585]}}
{"name":"DSwiss","sector":"web","twitter_account":"dswiss","city":"Z\u00c3\u00bcrich","employees":10,"position":{"type":"Point","coordinates":[8.5142125,47.376362]}}
{"name":"Lipperhey","sector":"software","twitter_account":"lipperheytweets","city":"Amsterdam","employees":6,"position":{"type":"Point","coordinates":[4.9345824,52.3655578]}}
{"name":"Waveative","sector":"consulting","twitter_account":"","city":"Houston","employees":3,"position":{"type":"Point","coordinates":[-95.514493,29.7726138]}}
{"name":"CrowdGather","sector":"web","twitter_account":"crowdgather","city":"Woodland Hills","employees":9,"position":{"type":"Point","coordinates":[-118.575293,34.168955]}}
{"name":"Amrita Financial","sector":"web","twitter_account":"","city":"Oceanside","employees":8,"position":{"type":"Point","coordinates":[-117.3321424,33.1832317]}}
{"name":"Vortimer","sector":"web","twitter_account":"resumeanalysis","city":"Washington","employees":2,"position":{"type":"Point","coordinates":[-77.05681,38.905504]}}
{"name":"ubigrate","sector":"software","twitter_account":"ubigrate","city":"Dresden","employees":12,"position":{"type":"Point","coordinates":[13.7759644,51.0343624]}}
{"name":"140Ware","sector":"web","twitter_account":"140WARE","city":"Mayaguez","employees":3,"position":{"type":"Point","coordinates":[-67.1517568,18.2066344]}}
{"name":"Asyus","sector":"web","twitter_account":"AsyusInc","city":"Monte Sereno","employees":7,"position":{"type":"Point","coordinates":[-121.986779,37.241813]}}
{"name":"ChallengePost","sector":"web","twitter_account":"challengepost","city":"New York","employees":17,"position":{"type":"Point","coordinates":[-74.00717,40.7408042]}}
{"name":"Kear IT","sector":"consulting","twitter_account":"","city":"Baltimore","employees":15,"position":{"type":"Point","coordinates":[-76.684265,39.2569898]}}
{"name":"Outspoken Media","sector":"consulting","twitter_account":"outspokenmedia","city":"Troy","employees":8,"position":{"type":"Point","coordinates":[-82.540512,28.490886]}}
{"name":"flexjex","sector":"public_relations","twitter_account":"flexjex","city":"Cambridge","employees":2,"position":{"type":"Point","coordinates":[0.1312368,52.2025441]}}
{"name":"Teambox","sector":"web","twitter_account":"teambox_app","city":"Barcelona","employees":35,"position":{"type":"Point","coordinates":[2.1920231,41.4063346]}}
{"name":"SalesInsight","sector":"consulting","twitter_account":"","city":"Ghaziabad","employees":11,"position":{"type":"Point","coordinates":[77.0737149,28.6382433]}}
{"name":"Testplant","sector":"software","twitter_account":"testplant","city":"London","employees":50,"position":{"type":"Point","coordinates":[-0.1037742,51.517356]}}
{"name":"Testplant","sector":"software","twitter_account":"testplant","city":"Boulder","employees":50,"position":{"type":"Point","coordinates":[-105.2532841,40.0230047]}}
{"name":"famebook","sector":"web","twitter_account":"famebook","city":"London","employees":5,"position":{"type":"Point","coordinates":[-0.1262362,51.5001524]}}
{"name":"famebook","sector":"web","twitter_account":"famebook","city":"","employees":5,"position":{"type":"Point","coordinates":[-73.986951,40.756054]}}
{"name":"Culture Jam","sector":"web","twitter_account":"culturejam","city":"Los Angeles","employees":15,"position":{"type":"Point","coordinates":[-118.4660597,34.0137151]}}
{"name":"Tiverias Apps","sector":"software","twitter_account":"TiveriasApps","city":"Cambridge","employees":20,"position":{"type":"Point","coordinates":[-71.0814466,42.3672873]}}
{"name":"ftopia","sector":"software","twitter_account":"ftopia","city":"Paris","employees":7,"position":{"type":"Point","coordinates":[-6.2493777,53.3328144]}}
{"name":"HOTForms123","sector":"web","twitter_account":"","city":"Beverly Hills","employees":2,"position":{"type":"Point","coordinates":[-118.405325,34.0698912]}}
{"name":"Continuity Engine","sector":"software","twitter_account":"ContinuityEng","city":"New Haven","employees":11,"position":{"type":"Point","coordinates":[-73.2435522,41.3279176]}}
{"name":"Conversition","sector":"web","twitter_account":"conversition","city":"New York City","employees":10,"position":{"type":"Point","coordinates":[-73.986951,40.756054]}}
{"name":"MyChances","sector":"consulting","twitter_account":"mychances","city":"Reno","employees":2,"position":{"type":"Point","coordinates":[-119.8120795,39.394564]}}
{"name":"MyChances","sector":"consulting","twitter_account":"mychances","city":"Menlo Park","employees":2,"position":{"type":"Point","coordinates":[-122.1802812,37.4484914]}}
{"name":"SEO Sumo","sector":"public_relations","twitter_account":"seosumo","city":"Miami","employees":5,"position":{"type":"Point","coordinates":[-80.306331,25.723408]}}