[{"city":"New York","name":"TrialX","number_of_employees":5,"sector":"web","twitter_account":"trialx","long":-73.9893359,"lat":40.7277434},{"city":"New York","name":"YellowSpaces","number_of_employees":1,"sector":"web","twitter_account":"","long":-73.990024,"lat":40.739867},{"city":"New York","name":"YellowSpaces","number_of_employees":1,"sector":"web","twitter_account":"","long":-73.990024,"lat":40.739867},{"city":"New York","name":"RGA Advisors, LLC","number_of_employees":10,"sector":"consulting","twitter_account":null,"long":-73.985207,"lat":40.740145},{"city":"New York","name":"Buzzr","number_of_employees":5,"sector":"software","twitter_account":"buzzr","long":-73.992609,"lat":40.740941},{"city":"New York","name":"Samepoint","number_of_employees":5,"sector":"web","twitter_account":"samepoint","long":-73.999675,"lat":40.741441},{"city":"New York","name":"Samepoint","number_of_employees":5,"sector":"web","twitter_account":"samepoint","long":-73.999675,"lat":40.741441},{"city":"New York","name":"Aghreni Technologies","number_of_employees":15,"sector":"software","twitter_account":"aghreni","long":-73.988071,"lat":40.744549},{"city":"New York","name":"Yipit","number_of_employees":23,"sector":"web","twitter_account":"yipit","long":-73.987764,"lat":40.744618},{"city":"New York","name":"ChallengePost","number_of_employees":17,"sector":"web","twitter_account":"challengepost","long":-74.00717,"lat":40.7408042},{"city":"New York","name":"Strateer","number_of_employees":2,"sector":"web","twitter_account":null,"long":-74.007072,"lat":40.714521},{"city":"New York","name":"IrishCentral","number_of_employees":20,"sector":"public_relations","twitter_account":null,"long":-73.989276,"lat":40.74828},{"city":"New York City","name":"ArtNeighbor","number_of_employees":5,"sector":"web","twitter_account":"artneighbor","long":-73.9918181,"lat":40.7489381},{"city":"New York","name":"Strategist News","number_of_employees":4,"sector":"web","twitter_account":"strategistnews","long":-73.9918181,"lat":40.7489381},{"city":"New York","name":"Cookstr","number_of_employees":10,"sector":"web","twitter_account":"cookstr","long":-74.001724,"lat":40.707268},{"city":"Brooklyn","name":"gliider","number_of_employees":5,"sector":"web","twitter_account":"mailglider","long":-73.989613,"lat":40.702692},{"city":"New York","name":"Ladies Who Launch","number_of_employees":12,"sector":"public_relations","twitter_account":"ladieswholaunch","long":-73.991512,"lat":40.753877},{"city":"New York","name":"GameChanger Media","number_of_employees":20,"sector":"software","twitter_account":"GCsports","long":-74.0136605,"lat":40.7078343},{"city":"New York","name":"Disrupto","number_of_employees":7,"sector":"web","twitter_account":"disrupto","long":-73.9565551,"lat":40.714279},{"city":"","name":"Papervitamins","number_of_employees":2,"sector":"web","twitter_account":"papervitamins","long":-73.986951,"lat":40.756054},{"city":"","name":"famebook","number_of_employees":5,"sector":"web","twitter_account":"famebook","long":-73.986951,"lat":40.756054},{"city":"New York City","name":"Conversition","number_of_employees":10,"sector":"web","twitter_account":"conversition","long":-73.986951,"lat":40.756054},{"city":"New York","name":"Wee Web","number_of_employees":5,"sector":"web","twitter_account":"weeweb","long":-73.986951,"lat":40.756054},{"city":"New York","name":"Udorse","number_of_employees":3,"sector":"web","twitter_account":"udorse","long":-73.986951,"lat":40.756054},{"city":"","name":"Papervitamins","number_of_employees":2,"sector":"web","twitter_account":"papervitamins","long":-73.986951,"lat":40.756054},{"city":"New York","name":"People Capital","number_of_employees":10,"sector":"web","twitter_account":null,"long":-73.986951,"lat":40.756054},{"city":"New York","name":"Thomson Reuters","number_of_employees":50000,"sector":"public_relations","twitter_account":"ThomsonReuters","long":-73.9871847,"lat":40.7564318},{"city":"New York","name":"Thomson Reuters","number_of_employees":50000,"sector":"public_relations","twitter_account":"ThomsonReuters","long":-73.9871847,"lat":40.7564318},{"city":"New York","name":"Pinch Media","number_of_employees":6,"sector":"software","twitter_account":null,"long":-73.985506,"lat":40.757929},{"city":"Hoboken","name":"IAmInTown","number_of_employees":3,"sector":"web","twitter_account":null,"long":-74.0348315,"lat":40.7370784},{"city":"New York","name":"Unison Technologies","number_of_employees":30,"sector":"software","twitter_account":"unison","long":-73.9799007,"lat":40.7645772},{"city":"New York","name":"Producteev","number_of_employees":10,"sector":"software","twitter_account":"producteev","long":-73.983656,"lat":40.775309},{"city":"New York","name":"Producteev","number_of_employees":10,"sector":"software","twitter_account":"producteev","long":-73.983656,"lat":40.775309},{"city":"New York","name":"CarZen","number_of_employees":5,"sector":"web","twitter_account":"carzen","long":-73.951865,"lat":40.76945},{"city":"New York","name":"VideoCustomizer","number_of_employees":20,"sector":"public_relations","twitter_account":"videocustomizer","long":-73.9453758,"lat":40.778334},{"city":"Brooklyn","name":"Mad Mimi","number_of_employees":35,"sector":"web","twitter_account":"madmimi","long":-73.980306,"lat":40.66509},{"city":"New York","name":"College Mogul","number_of_employees":9,"sector":"web","twitter_account":"mogulcollege","long":-73.963158,"lat":40.798345},{"city":"","name":"Curbsidebooty","number_of_employees":2,"sector":"web","twitter_account":null,"long":-73.974187,"lat":40.642591}]